     3.03           OBSERVATION DATA    M: Mixed            RINEX VERSION / TYPE
RTKCONV 2.4.3 Emlid                     20210609 004629 UTC PGM / RUN BY / DATE 
log: D:\SHMILY\RTK\blox\COM8_210609_003820.ubx              COMMENT             
format: u-blox                                              COMMENT             
PING                                                        MARKER NAME         
NIE                                                         MARKER NUMBER       
                                                            MARKER TYPE         
                                                            OBSERVER / AGENCY   
                                                            REC # / TYPE / VERS 
                                                            ANT # / TYPE        
 -2168781.8378  4386835.7988  4076913.2070                  APPROX POSITION XYZ 
        0.0000        0.0000        0.0000                  ANTENNA: DELTA H/E/N
G    4 C1C L1C D1C S1C                                      SYS / # / OBS TYPES 
E    4 C1C L1C D1C S1C                                      SYS / # / OBS TYPES 
C    4 C1I L1I D1I S1I                                      SYS / # / OBS TYPES 
     1.000                                                  INTERVAL            
  2021     6     9     0    38   23.9990000     GPS         TIME OF FIRST OBS   
  2021     6     9     0    46   38.9990000     GPS         TIME OF LAST OBS    
G                                                           SYS / PHASE SHIFT   
E                                                           SYS / PHASE SHIFT   
C                                                           SYS / PHASE SHIFT   
  0                                                         GLONASS SLOT / FRQ #
 C1C    0.000 C1P    0.000 C2C    0.000 C2P    0.000        GLONASS COD/PHS/BIS 
                                                            END OF HEADER       
> 2021  6  9  0 38 23.9990000  0 25                     
G 8  19735745.891 1 103712034.314 1      -295.671          48.000  
G27  20836817.112 1 109498207.143 1     -2385.307          45.000  
G 7  20605387.186 1 108282023.073 1      1756.439          45.000  
C 3  37292026.409 1 194189337.733 1        84.222          42.000  
C 1  37875981.926 1 197230143.082 1        45.949          41.000  
G16  22796939.484 1 119798714.266 1     -2579.609          41.000  
G21  21708801.308 1 114080515.768 1      2792.750          43.000  
G30  23341863.829 1 122662337.518 1      3281.328          36.000  
C 7  35731559.586 1 186063581.223 1       136.469          45.000  
C25  21747370.570 1 113244217.997 1      -981.910          48.000  
C11  21196355.428 1 110374960.864 1       170.305          45.000  
C10  36438823.542 1 189746481.027 1       322.844          43.000  
C23  22356334.326 1 116415266.537 1      1813.785          47.000  
C 9  37099663.934 1 193187641.520 1     -1594.605          41.000  
C 2  37907418.851 1 197393827.852 1        40.114          38.000  
C12  23381278.851 1 121752417.678 1     -2562.634          42.000  
C 4  38614314.677 1 201074852.411 1        64.032          38.000  
G 9  23232661.832 1 122088461.897 1     -2683.784          39.000  
C16  38936036.961 1 202750127.398 1     -1836.189          39.000  
C 5  39732943.505 2 206899829.92221        39.974          35.000  
C 6  38501635.812 2 200488108.908 1     -1742.047          37.000  
G26  24867822.331 4 130681297.672 2     -2825.933          33.000  
G 4  24356609.643 2 127994850.745 1     -3311.784          35.000  
G 1  23739433.649 2 124751609.280 1      4022.998          39.000  
C28  25616433.397 1 133391470.631 1      3371.101          38.000  
> 2021  6  9  0 38 24.9990000  0 25                     
G 8  19735802.290 1 103712330.517 1      -296.598          48.000  
G27  20837271.176 1 109500592.908 1     -2385.884          45.000  
G 7  20605052.918 1 108280267.155 1      1755.609          45.000  
C 3  37292009.927 1 194189253.842 1        84.070          42.000  
C 1  37875973.070 1 197230097.437 1        45.375          41.000  
G16  22797430.489 1 119801294.005 1     -2579.965          41.000  
G21  21708270.106 1 114077723.504 1      2792.119          43.000  
G30  23341239.146 2 122659056.827 1      3280.598          36.000  
C 7  35731533.768 1 186063445.011 1       136.072          45.000  
C25  21747559.120 1 113245200.402 1      -982.662          48.000  
C11  21196322.726 1 110374791.129 1       169.437          45.000  
C10  36438761.690 1 189746158.482 1       322.241          43.000  
C23  22355986.186 1 116413453.194 1      1812.994          47.000  
C 9  37099970.019 1 193189236.419 1     -1595.045          41.000  
C 2  37907411.365 1 197393788.118 1        39.301          38.000  
C12  23381771.025 1 121754980.779 1     -2563.486          41.000  
C 4  38614302.602 2 201074789.020 1        63.348          38.000  
G 9  23233173.027 1 122091145.908 1     -2684.389          39.000  
C16  38936389.437 1 202751963.980 1     -1836.434          39.000  
C 5  39732935.871 2 206899790.55821        39.067          34.000  
C 6  38501970.097 2 200489850.813 1     -1742.285          37.000  
G26  24868360.260 2 130684124.522 1     -2827.197          33.000  
G 4  24357239.797 2 127998162.913 1     -3312.236          35.000  
G 1  23738667.785 2 124747586.573 1      4022.774          39.000  
C28  25615785.855 1 133388100.036 1      3370.560          38.000  
> 2021  6  9  0 38 25.9990000  0 25                     
G 8  19735858.846 1 103712627.881 1      -298.571          48.000  
G27  20837725.361 1 109502979.649 1     -2387.821          45.000  
G 7  20604719.270 1 108278512.358 1      1753.595          45.000  
C 3  37291994.109 1 194189170.569 1        82.515          42.000  
C 1  37875964.755 1 197230052.387 1        44.401          41.000  
G16  22797921.512 1 119803874.482 1     -2581.378          41.000  
G21  21707738.895 1 114074932.268 1      2790.106          43.000  
G30  23340614.620 2 122655776.985 1      3278.942          36.000  
C 7  35731507.550 1 186063309.397 1       134.810          45.000  
C25  21747747.914 1 113246183.824 1      -984.375          48.000  
C11  21196290.469 1 110374622.515 1       167.623          45.000  
C10  36438700.030 1 189745836.498 1       321.174          43.000  
C23  22355638.194 1 116411640.739 1      1811.541          47.000  
C 9  37100276.305 1 193190832.031 1     -1596.380          41.000  
C 2  37907403.896 1 197393748.966 1        38.310          38.000  
C12  23382263.375 1 121757544.736 1     -2564.883          41.000  
C 4  38614290.727 2 201074726.225 1        62.286          38.000  
G 9  23233684.135 1 122093830.795 1     -2685.736          39.000  
C16  38936742.133 1 202753801.235 1     -1838.293          39.000  
C 5  39732928.472 4 206899751.81822        37.759          34.000  
C 6  38502304.827 2 200491593.358 1     -1743.195          37.000  
G26  24868898.338 4 130686952.028 2     -2828.449          33.000  
G 4  24357870.343 2 128001475.658 1     -3313.685          36.000  
G 1  23737902.532 1 124743564.505 1      4021.217          39.000  
C28  25615138.731 1 133384730.178 1      3368.803          38.000  
> 2021  6  9  0 38 26.9990000  0 25                     
G 8  19735915.542 1 103712926.685 1      -299.006          48.000  
G27  20838179.756 1 109505367.671 1     -2388.215          45.000  
G 7  20604385.587 1 108276758.983 1      1753.247          45.000  
C 3  37291977.784 1 194189088.223 1        82.387          42.000  
C 1  37875956.379 1 197230008.278 1        44.176          41.000  
G16  22798412.745 1 119806456.026 1     -2581.602          41.000  
G21  21707208.496 1 114072142.342 1      2789.643          43.000  
G30  23339990.321 2 122652498.253 1      3278.741          36.000  
C 7  35731481.523 1 186063174.705 1       134.667          45.000  
C25  21747937.205 1 113247168.576 1      -985.002          48.000  
C11  21196258.248 1 110374455.382 1       166.949          45.000  
C10  36438638.264 1 189745515.453 1       321.082          43.000  
C23  22355290.358 1 116409829.508 1      1810.998          47.000  
C 9  37100582.635 1 193192428.695 1     -1596.569          41.000  
C 2  37907396.349 2 197393710.733 1        38.277          38.000  
C12  23382755.881 1 121760109.920 1     -2565.161          41.000  
C 4  38614279.131 2 201074664.377 1        62.067          38.000  
G 9  23234195.287 1 122096516.840 1     -2686.109          39.000  
C16  38937095.081 1 202755639.447 1     -1838.421          39.000  
C 5  39732921.117 4 206899713.98822        37.944          35.000  
C 6  38502639.793 2 200493336.900 1     -1743.756          37.000  
G26  24869436.101 4 130689780.512 2     -2828.180          33.000  
G 4  24358501.177 4 128004789.260 2     -3313.668          36.000  
G 1  23737137.375 1 124739543.365 1      4021.315          39.000  
C28  25614491.808 1 133381361.332 1      3369.043          38.000  
> 2021  6  9  0 38 27.9990000  0 26                     
G 8  19735972.622 1 103713226.465 1      -300.587          48.000  
G27  20838634.457 1 109507756.485 1     -2389.616          45.000  
G 7  20604052.244 1 108275006.575 1      1751.508          45.000  
C 3  37291962.436 1 194189006.308 1        81.569          42.000  
C 1  37875947.994 1 197229964.631 1        43.228          41.000  
G16  22798903.933 1 119809038.103 1     -2582.762          41.000  
G21  21706678.062 1 114069353.239 1      2788.426          43.000  
G30  23339366.441 1 122649220.208 1      3277.039          36.000  
C 7  35731455.941 1 186063040.422 1       133.830          45.000  
C25  21748126.470 1 113248154.179 1      -986.356          48.000  
C11  21196226.392 1 110374289.209 1       165.321          45.000  
C10  36438576.761 1 189745194.813 1       319.946          43.000  
C23  22354942.715 1 116408018.980 1      1809.893          47.000  
C 9  37100889.192 1 193194025.916 1     -1597.408          41.000  
C 2  37907388.880 2 197393672.908 1        37.398          38.000  
C12  23383248.893 1 121762675.831 1     -2566.925          41.000  
C 4  38614267.091 1 201074602.994 1        60.663          38.000  
G 9  23234706.352 1 122099203.614 1     -2687.226          39.000  
C16  38937448.168 1 202757478.111 1     -1838.996          39.000  
C 5  39732913.953 2 206899676.61321        36.870          35.000  
C 6  38502974.846 1 200495080.919 1     -1744.672          37.000  
G26  24869974.170 4 130692609.505 2     -2829.145          32.000  
G 4  24359131.985 2 128008103.246 1     -3314.778          36.000  
G 1  23736372.314 1 124735522.679 1      4020.434          39.000  
C28  25613845.007 1 133377993.034 1      3367.613          39.000  
C24  25652670.232 9 133580153.57125     -2879.029          28.000  
> 2021  6  9  0 38 28.9990000  0 26                     
G 8  19736029.658 1 103713527.087 1      -300.870          48.000  
G27  20839089.052 1 109510145.988 1     -2389.809          45.000  
G 7  20603718.439 1 108273254.983 1      1751.422          45.000  
C 3  37291946.574 1 194188924.751 1        81.439          42.000  
C 1  37875939.505 1 197229921.316 1        43.483          41.000  
G16  22799395.340 1 119811620.637 1     -2582.491          41.000  
G21  21706147.514 1 114066564.869 1      2788.136          43.000  
G30  23338742.822 1 122645942.685 1      3277.354          36.000  
C 7  35731430.524 1 186062906.467 1       134.042          45.000  
C25  21748315.849 1 113249140.513 1      -986.401          48.000  
C11  21196194.764 1 110374123.903 1       164.955          45.000  
C10  36438515.188 1 189744874.481 1       320.548          43.000  
C23  22354594.941 1 116406209.075 1      1809.664          47.000  
C 9  37101195.914 1 193195623.616 1     -1597.871          41.000  
C 2  37907381.787 1 197393635.478 1        37.378          38.000  
C12  23383741.722 1 121765242.319 1     -2566.800          41.000  
C 4  38614255.521 1 201074541.925 1        61.005          38.000  
G 9  23235217.905 1 122101890.971 1     -2687.494          39.000  
C16  38937801.369 1 202759317.201 1     -1839.155          39.000  
C 5  39732906.642 2 206899639.56021        37.002          35.000  
C 6  38503309.628 2 200496825.280 1     -1744.287          36.000  
G26  24870511.863 4 130695438.858 2     -2828.720          32.000  
G 4  24359762.793 2 128011417.495 1     -3313.999          36.000  
G 1  23735607.497 1 124731502.338 1      4020.539          39.000  
C28  25613198.563 1 133374625.189 1      3367.811          39.000  
C24  25653229.476 9 133583032.73924     -2879.497          29.000  
> 2021  6  9  0 38 29.9990000  0 26                     
G 8  19736086.755 1 103713827.645 1      -300.710          48.000  
G27  20839543.482 1 109512535.237 1     -2389.293          45.000  
G 7  20603385.148 1 108271503.314 1      1751.587          45.000  
C 3  37291930.782 1 194188842.575 1        82.496          42.000  
C 1  37875930.753 1 197229877.417 1        44.170          41.000  
G16  22799886.599 1 119814202.701 1     -2581.875          41.000  
G21  21705616.896 1 114063776.278 1      2788.691          43.000  
G30  23338119.186 1 122642664.782 1      3278.255          36.000  
C 7  35731404.707 1 186062771.916 1       134.817          45.000  
C25  21748505.376 1 113250126.675 1      -986.112          48.000  
C11  21196163.048 1 110373958.523 1       165.383          45.000  
C10  36438453.528 1 189744553.545 1       321.271          43.000  
C23  22354247.080 1 116404398.861 1      1810.280          47.000  
C 9  37101502.733 1 193197220.794 1     -1596.887          41.000  
C 2  37907374.772 2 197393597.422 1        38.255          38.000  
C12  23384234.124 1 121767808.487 1     -2565.948          41.000  
C 4  38614243.803 1 201074480.270 1        62.115          38.000  
G 9  23235729.135 1 122104577.973 1     -2686.965          39.000  
C16  38938154.361 1 202761155.706 1     -1838.460          39.000  
C 5  39732899.199 2 206899601.42911        38.033          35.000  
C 6  38503644.393 2 200498569.112 1     -1743.445          37.000  
G26  24871049.688 4 130698267.700 2     -2828.496          32.000  
G 4  24360393.540 2 128014731.120 1     -3313.021          36.000  
G 1  23734842.078 2 124727481.414 1      4021.018          39.000  
C28  25612551.884 1 133371256.822 1      3368.857          39.000  
C24  25653783.049 9 133585911.40323     -2878.856          28.000  
> 2021  6  9  0 38 30.9990000  0 25                     
G 8  19736144.297 1 103714129.008 1      -302.197          48.000  
G27  20839998.174 1 109514925.104 1     -2390.492          45.000  
G 7  20603051.945 1 108269752.410 1      1750.079          45.000  
C 3  37291915.469 1 194188760.690 1        81.323          42.000  
C 1  37875922.561 1 197229833.799 1        42.833          41.000  
G16  22800377.814 1 119816785.144 1     -2582.985          41.000  
G21  21705086.453 1 114060988.345 1      2787.249          43.000  
G30  23337496.039 1 122639387.373 1      3276.677          36.000  
C 7  35731378.784 1 186062637.590 1       133.775          45.000  
C25  21748694.911 1 113251113.506 1      -987.514          48.000  
C11  21196131.384 1 110373793.953 1       163.564          45.000  
C10  36438392.086 1 189744232.863 1       320.013          43.000  
C23  22353899.751 1 116402589.196 1      1809.102          47.000  
C 9  37101809.848 1 193198818.378 1     -1598.100          40.000  
C 2  37907367.425 1 197393559.627 1        37.535          38.000  
C12  23384727.171 1 121770375.197 1     -2567.291          41.000  
C 4  38614232.033 1 201074418.899 1        61.127          38.000  
G 9  23236240.584 1 122107265.479 1     -2688.086          39.000  
C16  38938507.196 1 202762994.533 1     -1839.360          39.000  
C 5  39732892.001 2 206899564.083 1        36.595          35.000  
C 6  38503979.211 2 200500313.256 1     -1745.142          37.000  
G26  24871587.861 2 130701096.839 1     -2829.696          32.000  
G 4  24361024.033 2 128018044.969 1     -3314.367          36.000  
G 1  23734077.217 1 124723460.738 1      4020.261          39.000  
C28  25611905.179 1 133367888.856 1      3367.532          39.000  
> 2021  6  9  0 38 31.9990000  0 25                     
G 8  19736201.839 1 103714431.873 1      -302.684          48.000  
G27  20840452.979 1 109517316.318 1     -2391.005          45.000  
G 7  20602718.855 1 108268002.988 1      1749.383          45.000  
C 3  37291899.537 1 194188679.785 1        81.381          42.000  
C 1  37875914.333 1 197229791.130 1        43.059          41.000  
G16  22800868.976 1 119819368.699 1     -2583.296          40.000  
G21  21704556.133 1 114058201.805 1      2786.491          44.000  
G30  23336872.997 1 122636111.149 1      3276.368          36.000  
C 7  35731353.080 1 186062504.238 1       133.623          45.000  
C25  21748884.665 1 113252101.721 1      -988.078          48.000  
C11  21196100.149 1 110373630.886 1       163.085          45.000  
C10  36438330.512 1 189743913.157 1       320.181          43.000  
C23  22353552.378 1 116400780.794 1      1808.560          47.000  
C 9  37102116.867 1 193200417.067 1     -1598.302          40.000  
C 2  37907360.140 2 197393522.851 1        37.197          38.000  
C12  23385220.235 1 121772943.194 1     -2568.018          41.000  
C 4  38614220.333 1 201074358.519 1        60.657          38.000  
G 9  23236752.119 1 122109954.252 1     -2688.493          39.000  
C16  38938860.545 1 202764834.366 1     -1839.756          39.000  
C 5  39732885.117 2 206899527.695 1        36.534          35.000  
C 6  38504314.141 2 200502058.395 1     -1744.739          36.000  
G26  24872126.279 4 130703927.055 2     -2830.352          32.000  
G 4  24361654.710 2 128021359.751 1     -3314.728          36.000  
G 1  23733312.043 1 124719441.059 1      4020.369          39.000  
C28  25611258.762 1 133364521.971 1      3366.979          39.000  
> 2021  6  9  0 38 32.9990000  0 25                     
G 8  19736259.337 1 103714735.512 1      -304.635          48.000  
G27  20840908.133 1 109519708.141 1     -2392.839          45.000  
G 7  20602386.219 1 108266254.326 1      1747.711          45.000  
C 3  37291884.294 1 194188599.135 1        79.866          42.000  
C 1  37875906.009 1 197229748.753 1        41.754          41.000  
G16  22801360.662 1 119821952.629 1     -2584.686          40.000  
G21  21704026.309 1 114055415.897 1      2785.047          44.000  
G30  23336249.797 1 122632835.397 1      3274.613          36.000  
C 7  35731327.367 1 186062371.119 1       132.424          45.000  
C25  21749074.366 1 113253090.611 1      -989.946          48.000  
C11  21196069.122 1 110373468.601 1       161.390          45.000  
C10  36438269.227 1 189743593.702 1       318.490          43.000  
C23  22353205.267 1 116398972.932 1      1806.917          47.000  
C 9  37102424.043 1 193202016.142 1     -1600.000          40.000  
C 2  37907353.369 2 197393486.309 1        35.836          38.000  
C12  23385713.326 1 121775511.686 1     -2569.427          41.000  
C 4  38614208.842 1 201074298.389 1        59.485          38.000  
G 9  23237263.699 1 122112643.541 1     -2690.316          39.000  
C16  38939213.930 1 202766674.531 1     -1841.290          39.000  
C 5  39732878.163 2 206899491.581 1        35.364          34.000  
C 6  38504649.325 1 200503803.824 1     -1746.112          36.000  
G26  24872664.461 4 130706757.505 2     -2830.551          32.000  
G 4  24362285.641 2 128024674.721 1     -3315.895          37.000  
G 1  23732547.016 1 124715421.674 1      4018.432          39.000  
C28  25610612.240 1 133361155.435 1      3365.845          39.000  
> 2021  6  9  0 38 33.9990000  0 25                     
G 8  19736317.508 1 103715041.745 1      -307.480          48.000  
G27  20841363.915 1 109522102.387 1     -2395.486          45.000  
G 7  20602053.985 1 108264508.235 1      1745.019          45.000  
C 3  37291868.912 1 194188520.551 1        77.650          42.000  
C 1  37875897.921 1 197229708.430 1        39.466          41.000  
G16  22801852.985 1 119824538.741 1     -2587.127          41.000  
G21  21703497.105 1 114052632.450 1      2782.215          44.000  
G30  23335627.260 2 122629561.903 1      3272.568          36.000  
C 7  35731302.492 1 186062240.045 1       130.058          45.000  
C25  21749264.731 1 113254081.940 1      -992.382          48.000  
C11  21196038.584 1 110373308.914 1       158.450          45.000  
C10  36438208.178 1 189743276.243 1       316.755          43.000  
C23  22352858.627 1 116397167.413 1      1804.299          47.000  
C 9  37102731.525 1 193203617.367 1     -1602.199          40.000  
C 2  37907346.668 1 197393451.835 1        33.604          38.000  
C12  23386206.862 1 121778082.512 1     -2572.095          41.000  
C 4  38614197.543 1 201074240.310 1        57.220          38.000  
G 9  23237775.950 1 122115335.106 1     -2692.310          39.000  
C16  38939567.759 1 202768516.746 1     -1842.954          39.000  
C 5  39732871.610 4 206899457.471 2        33.770          34.000  
C 6  38504984.832 2 200505551.359 1     -1748.425          36.000  
G26  24873203.472 4 130709590.141 2     -2833.206          32.000  
G 4  24362916.728 2 128027991.712 1     -3317.647          37.000  
G 1  23731782.610 1 124711404.353 1      4016.261          39.000  
C28  25609966.076 1 133357791.070 1      3363.209          39.000  
> 2021  6  9  0 38 34.9990000  0 25                     
G 8  19736376.341 1 103715349.815 1      -308.552          48.000  
G27  20841819.784 1 109524498.280 1     -2396.420          45.000  
G 7  20601721.811 1 108262763.970 1      1743.774          45.000  
C 3  37291854.193 1 194188443.271 1        77.208          42.000  
C 1  37875890.443 1 197229669.423 1        38.745          41.000  
G16  22802345.535 1 119827126.281 1     -2587.855          41.000  
G21  21702968.006 1 114049850.706 1      2781.201          44.000  
G30  23335005.047 1 122626289.979 1      3271.428          36.000  
C 7  35731277.468 1 186062110.250 1       129.567          45.000  
C25  21749455.435 1 113255074.985 1      -993.440          48.000  
C11  21196008.299 1 110373151.061 1       157.257          45.000  
C10  36438147.486 1 189742960.087 1       315.891          43.000  
C23  22352512.441 1 116395363.458 1      1803.721          47.000  
C 9  37103039.268 1 193205220.008 1     -1602.974          40.000  
C 2  37907340.125 1 197393418.664 1        32.905          38.000  
C12  23386700.834 1 121780654.914 1     -2572.821          41.000  
C 4  38614186.689 1 201074183.558 1        56.885          38.000  
G 9  23238288.532 1 122118028.275 1     -2693.741          39.000  
C16  38939922.103 1 202770360.322 1     -1843.862          40.000  
C 5  39732865.067 2 206899424.750 1        32.507          34.000  
C 6  38505320.722 2 200507300.247 1     -1749.414          37.000  
G26  24873742.335 4 130712424.150 2     -2834.524          32.000  
G 4  24363548.068 2 128031309.956 1     -3318.513          36.000  
G 1  23731018.308 1 124707388.360 1      4015.611          39.000  
C28  25609320.427 1 133354428.108 1      3362.539          39.000  
> 2021  6  9  0 38 35.9990000  0 25                     
G 8  19736434.782 1 103715658.661 1      -309.135          48.000  
G27  20842276.081 1 109526894.774 1     -2396.695          45.000  
G 7  20601390.100 1 108261020.443 1      1743.311          45.000  
C 3  37291839.369 1 194188366.236 1        76.810          42.000  
C 1  37875883.141 1 197229630.650 1        38.810          41.000  
G16  22802838.137 1 119829714.188 1     -2588.055          41.000  
G21  21702439.360 1 114047069.602 1      2780.854          44.000  
G30  23334382.449 2 122623018.465 1      3271.688          36.000  
C 7  35731252.305 1 186061980.711 1       129.207          45.000  
C25  21749646.088 1 113256068.687 1      -993.970          48.000  
C11  21195978.163 1 110372993.985 1       156.649          45.000  
C10  36438086.672 1 189742644.162 1       315.863          43.000  
C23  22352166.002 1 116393560.048 1      1803.182          47.000  
C 9  37103347.212 1 193206823.021 1     -1603.092          41.000  
C 2  37907334.139 1 197393385.713 1        33.170          38.000  
C12  23387194.954 1 121783227.823 1     -2572.949          41.000  
C 4  38614175.870 2 201074127.060 1        56.677          38.000  
G 9  23238801.098 1 122120721.929 1     -2693.614          39.000  
C16  38940276.290 1 202772204.201 1     -1844.068          40.000  
C 5  39732858.566 2 206899392.237 1        32.488          35.000  
C 6  38505656.709 2 200509049.374 1     -1748.694          36.000  
G26  24874281.503 4 130715258.445 2     -2834.318          32.000  
G 4  24364179.652 2 128034628.396 1     -3318.753          36.000  
G 1  23730253.883 1 124703372.608 1      4015.570          39.000  
C28  25608674.647 1 133351065.470 1      3362.635          39.000  
> 2021  6  9  0 38 36.9990000  0 25                     
G 8  19736493.572 1 103715967.605 1      -308.397          48.000  
G27  20842732.134 1 109529291.217 1     -2395.719          45.000  
G 7  20601058.031 1 108259277.025 1      1744.037          45.000  
C 3  37291824.196 1 194188288.790 1        78.250          42.000  
C 1  37875875.890 1 197229591.489 1        39.951          41.000  
G16  22803330.722 1 119832301.801 1     -2586.848          41.000  
G21  21701910.182 1 114044288.489 1      2781.798          44.000  
G30  23333759.878 1 122619746.772 1      3272.612          36.000  
C 7  35731227.508 1 186061850.729 1       130.688          45.000  
C25  21749837.054 1 113257062.392 1      -992.957          48.000  
C11  21195948.061 1 110372837.038 1       157.373          45.000  
C10  36438025.736 1 189742327.805 1       317.100          43.000  
C23  22351819.519 1 116391756.511 1      1804.179          47.000  
C 9  37103655.034 1 193208425.744 1     -1601.689          40.000  
C 2  37907327.709 1 197393352.384 1        34.324          38.000  
C12  23387688.944 1 121785800.633 1     -2572.076          41.000  
C 4  38614164.972 2 201074070.139 1        58.356          38.000  
G 9  23239313.506 1 122123415.436 1     -2692.961          39.000  
C16  38940630.373 1 202774047.711 1     -1842.876          40.000  
C 5  39732852.529 4 206899357.79532        33.894          35.000  
C 6  38505992.364 2 200510798.162 1     -1747.772          36.000  
G26  24874820.767 4 130718092.406 2     -2834.012          31.000  
G 4  24364811.080 2 128037946.388 2     -3317.087          36.000  
G 1  23729489.511 1 124699356.458 1      4016.975          39.000  
C28  25608028.570 1 133347702.558 1      3363.999          39.000  
> 2021  6  9  0 38 37.9990000  0 25                     
G 8  19736552.082 1 103716275.616 1      -307.312          48.000  
G27  20843188.178 1 109531686.537 1     -2394.720          45.000  
G 7  20600726.372 1 108257532.620 1      1745.074          45.000  
C 3  37291809.424 1 194188209.892 1        79.687          42.000  
C 1  37875868.064 1 197229550.873 1        41.632          41.000  
G16  22803822.775 1 119834888.054 1     -2585.517          41.000  
G21  21701380.743 1 114041506.275 1      2782.899          44.000  
G30  23333137.132 2 122616473.826 1      3273.737          36.000  
C 7  35731202.424 1 186061719.259 1       132.376          45.000  
C25  21750027.802 1 113258055.043 1      -991.923          48.000  
C11  21195917.733 1 110372679.152 1       158.389          46.000  
C10  36437964.869 1 189742009.966 1       318.702          43.000  
C23  22351473.053 1 116389951.804 1      1805.499          47.000  
C 9  37103962.830 1 193210027.132 1     -1600.658          41.000  
C 2  37907320.668 1 197393317.590 1        35.764          38.000  
C12  23388182.899 1 121788372.222 1     -2570.782          41.000  
C 4  38614153.865 2 201074011.772 1        59.418          38.000  
G 9  23239825.748 1 122126107.696 1     -2691.527          39.000  
C16  38940984.446 1 202775889.797 1     -1841.525          40.000  
C 5  39732846.107 4 206899324.44522        35.452          35.000  
C 6  38506327.966 2 200512545.527 1     -1746.466          36.000  
G26  24875359.639 4 130720924.903 2     -2831.733          31.000  
G 4  24365441.949 2 128041262.844 1     -3315.509          36.000  
G 1  23728724.817 1 124695338.832 1      4018.727          39.000  
C28  25607382.449 1 133344338.314 1      3365.086          39.000  
> 2021  6  9  0 38 38.9990000  0 25                     
G 8  19736610.785 1 103716583.404 1      -308.459          48.000  
G27  20843644.161 1 109534081.456 1     -2395.440          45.000  
G 7  20600394.670 1 108255787.972 1      1743.970          45.000  
C 3  37291793.832 1 194188130.268 1        79.209          42.000  
C 1  37875860.063 1 197229509.526 1        41.218          41.000  
G16  22804314.565 1 119837473.676 1     -2585.942          41.000  
G21  21700851.050 1 114038723.702 1      2781.988          44.000  
G30  23332514.246 2 122613200.343 1      3273.175          36.000  
C 7  35731176.964 1 186061587.041 1       131.958          45.000  
C25  21750218.315 1 113259047.365 1      -992.896          48.000  
C11  21195887.125 1 110372521.041 1       157.629          46.000  
C10  36437903.811 1 189741691.401 1       318.174          43.000  
C23  22351126.361 1 116388146.630 1      1804.694          47.000  
C 9  37104270.041 1 193211627.896 1     -1601.387          41.000  
C 2  37907313.984 1 197393282.047 1        35.401          38.000  
C12  23388676.408 1 121790943.355 1     -2571.808          41.000  
C 4  38614142.514 1 201073952.684 1        58.612          38.000  
G 9  23240338.410 1 122128799.452 1     -2692.389          39.000  
C16  38941338.162 1 202777731.176 1     -1841.702          40.000  
C 5  39732839.581 2 206899290.31031        34.688          35.000  
C 6  38506663.333 2 200514292.183 1     -1746.716          36.000  
G26  24875898.536 4 130723756.709 2     -2832.493          31.000  
G 4  24366072.975 2 128044578.473 1     -3315.543          36.000  
G 1  23727959.930 1 124691320.487 1      4017.865          39.000  
C28  25606736.198 1 133340973.397 1      3364.688          39.000  
> 2021  6  9  0 38 39.9990000  0 25                     
G 8  19736669.452 1 103716891.500 1      -308.489          48.000  
G27  20844099.847 1 109536476.500 1     -2395.396          45.000  
G 7  20600062.618 1 108254043.595 1      1744.049          45.000  
C 3  37291778.668 1 194188050.406 1        79.897          42.000  
C 1  37875852.428 1 197229467.949 1        41.430          41.000  
G16  22804806.609 1 119840059.200 1     -2585.549          41.000  
G21  21700321.218 1 114035941.294 1      2782.117          43.000  
G30  23331890.881 2 122609926.819 1      3273.467          36.000  
C 7  35731151.268 1 186061454.601 1       132.292          45.000  
C25  21750408.898 1 113260039.861 1      -992.756          48.000  
C11  21195856.954 1 110372363.256 1       157.362          45.000  
C10  36437842.473 1 189741372.570 1       318.675          43.000  
C23  22350779.434 1 116386341.510 1      1804.940          47.000  
C 9  37104577.173 1 193213228.542 1     -1600.705          40.000  
C 2  37907307.091 2 197393246.292 1        35.881          38.000  
C12  23389170.424 1 121793514.528 1     -2571.240          41.000  
C 4  38614131.276 2 201073893.374 1        59.204          38.000  
G 9  23240850.905 2 122131491.244 1     -2691.872          39.000  
C16  38941691.608 1 202779572.380 1     -1841.168          40.000  
C 5  39732832.548 4 206899255.03422        34.397          35.000  
C 6  38506998.857 2 200516038.636 1     -1746.668          36.000  
G26  24876437.364 4 130726588.309 2     -2831.080          31.000  
G 4  24366703.669 4 128047893.850 2     -3315.331          36.000  
G 1  23727195.218 2 124687301.897 1      4018.398          39.000  
C28  25606089.824 2 133337608.374 1      3364.999          39.000  
> 2021  6  9  0 38 40.9990000  0 26                     
G 8  19736728.260 1 103717199.385 1      -307.430          48.000  
G27  20844555.499 1 109538871.171 1     -2394.289          45.000  
G 7  20599730.575 1 108252299.001 1      1745.129          45.000  
C 3  37291763.260 1 194187969.847 1        81.153          42.000  
C 1  37875844.462 1 197229425.660 1        43.240          41.000  
G16  22805298.758 1 119842644.122 1     -2584.470          41.000  
G21  21699791.080 1 114033158.552 1      2783.132          43.000  
G30  23331267.550 2 122606652.822 1      3274.120          36.000  
C 7  35731125.686 1 186061321.430 1       133.804          45.000  
C25  21750599.489 1 113261032.051 1      -991.689          48.000  
C11  21195826.669 1 110372205.286 1       158.374          45.000  
C10  36437781.145 1 189741053.010 1       320.205          43.000  
C23  22350432.776 1 116384535.977 1      1805.841          47.000  
C 9  37104884.585 1 193214828.595 1     -1599.430          40.000  
C 2  37907300.076 2 197393209.817 1        37.288          38.000  
C12  23389664.108 1 121796085.263 1     -2570.184          41.000  
C 4  38614119.549 2 201073833.361 1        60.602          38.000  
G 9  23241363.296 1 122134182.565 1     -2690.898          39.000  
C16  38942044.870 1 202781412.922 1     -1840.052          40.000  
C24  25659830.920 9                     -2876.959          27.000  
C 5  39732825.489 2 206899218.96121        36.371          34.000  
C 6  38507334.120 2 200517784.463 1     -1745.465          36.000  
G26  24876976.000 4 130729419.296 2     -2829.900          32.000  
G 4  24367334.250 4 128051208.467 2     -3314.412          35.000  
G 1  23726430.768 1 124683282.611 1      4019.711          39.000  
C28  25605443.512 1 133334242.759 1      3365.949          39.000  
> 2021  6  9  0 38 41.9990000  0 26                     
G 8  19736786.631 1 103717505.582 1      -305.372          48.000  
G27  20845011.054 1 109541263.970 1     -2391.969          45.000  
G 7  20599398.149 1 108250552.698 1      1747.070          45.000  
C 3  37291747.441 1 194187887.087 1        83.666          42.000  
C 1  37875835.789 1 197229381.200 1        45.476          41.000  
G16  22805790.164 1 119845226.929 1     -2581.800          40.000  
G21  21699260.759 1 114030373.976 1      2785.263          43.000  
G30  23330643.984 1 122603376.789 1      3276.775          36.000  
C 7  35731099.249 1 186061186.042 1       136.426          45.000  
C25  21750789.932 1 113262022.460 1      -989.603          48.000  
C11  21195796.113 1 110372045.653 1       160.465          45.000  
C10  36437719.371 1 189740731.260 1       322.774          43.000  
C23  22350085.691 1 116382728.514 1      1808.431          47.000  
C 9  37105191.299 1 193216426.570 1     -1596.825          40.000  
C 2  37907292.555 1 197393171.165 1        39.835          38.000  
C12  23390157.748 1 121798654.087 1     -2567.987          41.000  
C 4  38614107.727 2 201073771.138 1        63.434          38.000  
G 9  23241875.276 1 122136871.909 1     -2688.397          39.000  
C16  38942397.966 1 202783251.299 1     -1837.564          40.000  
C24  25660379.581 9               6     -2879.237          27.000  
C 5  39732818.265 2 206899179.71231        39.135          35.000  
C 6  38507668.998 2 200519528.078 1     -1742.413          36.000  
G26  24877514.147 4 130732248.099 2     -2827.635          31.000  
G 4  24367964.273 2 128054520.791 1     -3311.615          35.000  
G 1  23725665.392 1 124679261.104 1      4022.588          39.000  
C28  25604796.632 1 133330875.029 1      3368.577          39.000  
> 2021  6  9  0 38 42.9990000  0 26                     
G 8  19736844.496 1 103717810.123 1      -304.274          48.000  
G27  20845465.815 1 109543654.965 1     -2390.719          45.000  
G 7  20599065.783 1 108248804.730 1      1748.212          45.000  
C 3  37291731.352 1 194187802.175 1        85.455          42.000  
C 1  37875826.558 1 197229334.590 1        47.269          41.000  
G16  22806281.467 1 119847807.712 1     -2580.412          41.000  
G21  21698730.246 1 114027587.642 1      2786.492          43.000  
G30  23330020.366 1 122600098.799 1      3278.385          37.000  
C 7  35731072.804 1 186061048.492 1       137.982          45.000  
C25  21750979.790 1 113263011.120 1      -988.326          49.000  
C11  21195764.991 1 110371884.394 1       161.632          45.000  
C10  36437657.135 1 189740407.333 1       324.657          43.000  
C23  22349738.275 1 116380919.202 1      1809.672          47.000  
C 9  37105497.611 1 193218022.533 1     -1595.511          40.000  
C 2  37907284.642 1 197393130.377 1        41.150          38.000  
C12  23390650.481 1 121801221.038 1     -2566.565          41.000  
C 4  38614095.197 2 201073706.792 1        64.838          38.000  
G 9  23242386.716 1 122139559.352 1     -2687.000          39.000  
C16  38942750.705 1 202785087.578 1     -1835.837          39.000  
C24  25660939.986 9 133623175.97935     -2877.231          27.000  
C 5  39732810.596 4 206899139.30622        41.074          35.000  
C 6  38508003.126 2 200521269.601 1     -1740.515          37.000  
G26  24878052.198 4 130735074.778 2     -2826.560          32.000  
G 4  24368593.833 4 128057830.845 2     -3308.900          35.000  
G 1  23724899.633 1 124675237.436 1      4024.508          39.000  
C28  25604149.290 1 133327505.260 1      3370.421          39.000  
> 2021  6  9  0 38 43.9990000  0 26                     
G 8  19736902.596 1 103718113.991 1      -303.764          48.000  
G27  20845920.655 1 109546045.089 1     -2389.880          45.000  
G 7  20598732.929 1 108247056.043 1      1749.017          45.000  
C 3  37291714.512 1 194187716.088 1        86.454          42.000  
C 1  37875817.161 1 197229286.785 1        48.328          41.000  
G16  22806772.542 1 119850387.389 1     -2579.336          41.000  
G21  21698199.297 1 114024800.467 1      2787.378          43.000  
G30  23329396.172 1 122596819.823 1      3279.299          37.000  
C 7  35731046.358 1 186060909.735 1       139.239          45.000  
C25  21751169.631 1 113263999.000 1      -987.593          48.000  
C11  21195733.851 1 110371722.482 1       162.014          46.000  
C10  36437594.392 1 189740082.196 1       325.399          43.000  
C23  22349390.675 1 116379108.967 1      1810.515          47.000  
C 9  37105804.098 1 193219617.404 1     -1594.287          41.000  
C 2  37907276.641 1 197393088.368 1        42.161          38.000  
C12  23391143.537 1 121803787.053 1     -2565.601          41.000  
C 4  38614082.563 1 201073641.254 1        66.260          38.000  
G 9  23242897.807 1 122142245.815 1     -2686.181          39.000  
C16  38943102.999 1 202786922.674 1     -1834.394          39.000  
C24  25661497.703 8 133626052.77724     -2876.200          27.000  
C 5  39732802.900 2 206899097.75921        41.560          35.000  
C 6  38508337.411 2 200523009.979 1     -1739.838          37.000  
G26  24878589.883 4 130737900.310 2     -2825.018          33.000  
G 4  24369222.931 4 128061139.711 2     -3308.391          35.000  
G 1  23724133.717 1 124671212.575 1      4025.250          39.000  
C28  25603501.800 1 133324134.411 1      3371.133          39.000  
> 2021  6  9  0 38 44.9990000  0 25                     
G 8  19736960.208 1 103718417.667 1      -303.708          48.000  
G27  20846375.408 1 109548434.862 1     -2389.882          45.000  
G 7  20598400.057 1 108245307.167 1      1748.749          45.000  
C 3  37291698.100 1 194187629.294 1        86.995          42.000  
C 1  37875808.262 1 197229238.296 1        48.772          41.000  
G16  22807263.172 1 119852966.485 1     -2579.124          41.000  
G21  21697668.907 1 114022012.995 1      2787.437          43.000  
G30  23328772.161 1 122593540.370 1      3279.510          36.000  
C 7  35731019.807 1 186060770.242 1       139.748          45.000  
C25  21751359.062 1 113264986.581 1      -987.661          48.000  
C11  21195702.694 1 110371560.382 1       162.006          46.000  
C10  36437532.034 1 189739756.336 1       326.115          43.000  
C23  22349042.823 1 116377298.318 1      1810.763          47.000  
C 9  37106110.210 1 193221211.693 1     -1594.008          40.000  
C 2  37907268.518 1 197393045.667 1        42.779          38.000  
C12  23391636.297 1 121806352.657 1     -2565.588          41.000  
C 4  38614069.833 1 201073575.029 1        66.528          38.000  
G 9  23243408.880 1 122144931.833 1     -2685.933          39.000  
C16  38943455.144 1 202788757.165 1     -1834.296          39.000  
C 5  39732794.856 2 206899055.45021        42.542          35.000  
C 6  38508671.853 2 200524749.701 1     -1739.563          37.000  
G26  24879127.481 2 130740725.224 1     -2825.009          34.000  
G 4  24369852.334 2 128064447.787 1     -3307.807          35.000  
G 1  23723367.486 1 124667187.017 1      4025.468          39.000  
C28  25602854.388 1 133320762.953 1      3371.479          39.000  
> 2021  6  9  0 38 45.9990000  0 25                     
G 8  19737018.082 1 103718721.561 1      -304.143          48.000  
G27  20846829.943 1 109550824.664 1     -2389.931          45.000  
G 7  20598067.456 1 108243558.462 1      1748.383          45.000  
C 3  37291680.877 1 194187542.187 1        87.195          41.000  
C 1  37875798.856 1 197229189.502 1        48.701          42.000  
G16  22807753.864 1 119855545.366 1     -2578.929          41.000  
G21  21697138.141 1 114019225.598 1      2787.164          43.000  
G30  23328148.219 1 122590260.788 1      3279.534          37.000  
C 7  35730992.899 1 186060630.443 1       139.736          45.000  
C25  21751548.798 1 113265974.251 1      -987.832          49.000  
C11  21195671.606 1 110371398.517 1       161.400          45.000  
C10  36437469.274 1 189739430.138 1       326.291          43.000  
C23  22348695.328 1 116375487.649 1      1810.447          47.000  
C 9  37106416.095 1 193222805.794 1     -1594.079          41.000  
C 2  37907260.490 1 197393002.659 1        42.905          38.000  
C12  23392128.812 1 121808918.192 1     -2565.674          41.000  
C 4  38614057.156 2 201073508.493 1        66.473          38.000  
G 9  23243920.023 1 122147617.788 1     -2685.993          39.000  
C16  38943807.351 1 202790591.373 1     -1834.414          39.000  
C 5  39732786.741 2 206899012.85021        43.210          34.000  
C 6  38509005.859 2 200526489.116 1     -1739.618          37.000  
G26  24879665.253 4 130743549.811 2     -2824.580          33.000  
G 4  24370481.859 4 128067755.504 2     -3307.648          34.000  
G 1  23722601.213 1 124663161.143 1      4025.806          39.000  
C28  25602206.837 1 133317391.273 1      3371.988          38.000  
> 2021  6  9  0 38 46.9990000  0 25                     
G 8  19737075.999 1 103719026.333 1      -305.636          48.000  
G27  20847284.704 1 109553215.168 1     -2391.182          45.000  
G 7  20597734.872 1 108241810.610 1      1747.076          45.000  
C 3  37291664.465 1 194187455.452 1        86.292          41.000  
C 1  37875789.459 1 197229141.055 1        47.920          42.000  
G16  22808244.730 1 119858124.716 1     -2579.864          41.000  
G21  21696607.785 1 114016438.933 1      2785.949          43.000  
G30  23327524.165 1 122586981.778 1      3278.323          36.000  
C 7  35730966.436 1 186060490.951 1       139.029          45.000  
C25  21751738.674 1 113266962.682 1      -989.105          49.000  
C11  21195640.780 1 110371237.512 1       160.277          46.000  
C10  36437406.785 1 189739104.266 1       325.445          43.000  
C23  22348347.685 1 116373677.599 1      1809.523          47.000  
C 9  37106722.128 1 193224400.352 1     -1594.908          41.000  
C 2  37907252.106 1 197392959.991 1        42.432          38.000  
C12  23392621.484 1 121811484.368 1     -2566.882          41.000  
C 4  38614044.243 1 201073442.307 1        65.643          38.000  
G 9  23244430.878 1 122150304.341 1     -2687.328          39.000  
C16  38944159.592 1 202792425.935 1     -1834.962          39.000  
C 5  39732778.374 4 206898971.60332        41.703          34.000  
C 6  38509340.197 2 200528228.921 1     -1740.326          37.000  
G26  24880202.693 2 130746374.838 1     -2825.657          33.000  
G 4  24371111.280 4 128071063.457 2     -3307.951          34.000  
G 1  23721835.157 1 124659135.625 1      4024.954          39.000  
C28  25601559.477 1 133314020.092 1      3370.293          39.000  
> 2021  6  9  0 38 47.9990000  0 25                     
G 8  19737134.291 1 103719332.344 1      -306.266          48.000  
G27  20847739.666 1 109555606.764 1     -2391.923          45.000  
G 7  20597402.716 1 108240063.998 1      1746.368          45.000  
C 3  37291648.001 1 194187369.428 1        86.169          41.000  
C 1  37875780.298 1 197229093.336 1        47.618          42.000  
G16  22808735.630 1 119860704.920 1     -2580.198          41.000  
G21  21696077.691 1 114013653.384 1      2785.377          43.000  
G30  23326900.223 1 122583703.700 1      3278.412          36.000  
C 7  35730939.781 1 186060352.191 1       138.704          45.000  
C25  21751928.646 1 113267952.254 1      -989.864          49.000  
C11  21195610.120 1 110371077.781 1       159.445          46.000  
C10  36437344.322 1 189738779.137 1       324.996          43.000  
C23  22348000.242 1 116371868.566 1      1808.869          47.000  
C 9  37107028.519 1 193225995.756 1     -1595.454          41.000  
C 2  37907243.974 2 197392918.064 1        41.915          38.000  
C12  23393114.539 1 121814051.533 1     -2567.377          41.000  
C 4  38614031.748 1 201073376.853 1        65.253          38.000  
G 9  23244942.021 1 122152991.874 1     -2687.718          39.000  
C16  38944512.043 1 202794261.312 1     -1835.665          39.000  
C 5  39732770.617 4 206898930.10422        41.130          34.000  
C 6  38509674.290 2 200529969.516 1     -1741.010          37.000  
G26  24880740.544 2 130749200.638 1     -2826.086          34.000  
G 4  24371741.006 4 128074372.190 2     -3308.900          34.000  
G 1  23721069.127 1 124655110.863 1      4024.380          39.000  
C28  25600912.354 1 133310649.704 1      3370.334          39.000  
> 2021  6  9  0 38 48.9990000  0 25                     
G 8  19737192.488 1 103719638.832 1      -306.691          48.000  
G27  20848194.768 1 109557998.668 1     -2392.080          45.000  
G 7  20597070.386 1 108238317.865 1      1746.033          45.000  
C 3  37291631.327 1 194187283.379 1        86.315          42.000  
C 1  37875771.538 1 197229045.595 1        48.052          42.000  
G16  22809226.453 1 119863285.214 1     -2580.295          41.000  
G21  21695547.711 1 114010868.199 1      2785.258          43.000  
G30  23326276.492 1 122580425.829 1      3277.879          36.000  
C 7  35730912.951 1 186060213.394 1       138.974          45.000  
C25  21752118.705 1 113268942.194 1      -989.999          48.000  
C11  21195579.478 1 110370918.539 1       158.877          45.000  
C10  36437281.999 1 189738453.956 1       325.218          43.000  
C23  22347653.035 1 116370059.788 1      1808.798          47.000  
C 9  37107335.102 1 193227591.258 1     -1595.439          40.000  
C 2  37907236.043 1 197392876.121 1        41.980          38.000  
C12  23393607.456 1 121816618.940 1     -2567.322          41.000  
C 4  38614019.167 1 201073311.374 1        65.509          38.000  
G 9  23245453.025 1 122155679.607 1     -2687.572          38.000  
C16  38944864.624 1 202796096.678 1     -1835.439          39.000  
C 5  39732762.547 4 206898888.58522        41.368          34.000  
C 6  38510008.287 2 200531710.099 1     -1740.442          37.000  
G26  24881278.447 2 130752026.488 1     -2825.963          34.000  
G 4  24372370.531 4 128077680.731 2     -3307.500          35.000  
G 1  23720303.185 1 124651086.064 1      4025.000          39.000  
C28  25600265.212 1 133307279.429 1      3370.047          38.000  
> 2021  6  9  0 38 49.9990000  0 25                     
G 8  19737250.894 1 103719945.123 1      -306.265          48.000  
G27  20848649.887 1 109560390.197 1     -2391.195          45.000  
G 7  20596738.212 1 108236571.523 1      1746.429          45.000  
C 3  37291615.099 1 194187196.639 1        87.035          42.000  
C 1  37875762.123 1 197228997.176 1        48.770          42.000  
G16  22809717.353 1 119865864.912 1     -2579.561          40.000  
G21  21695017.660 1 114008082.701 1      2785.694          43.000  
G30  23325652.629 1 122577147.426 1      3278.971          37.000  
C 7  35730885.868 1 186060073.854 1       139.974          45.000  
C25  21752308.912 1 113269931.845 1      -989.595          49.000  
C11  21195548.774 1 110370759.122 1       159.595          45.000  
C10  36437219.309 1 189738128.040 1       326.269          43.000  
C23  22347305.497 1 116368250.589 1      1809.279          47.000  
C 9  37107641.423 1 193229186.175 1     -1594.737          41.000  
C 2  37907227.771 1 197392833.452 1        42.941          38.000  
C12  23394100.712 1 121819185.910 1     -2566.656          41.000  
C 4  38614006.437 1 201073245.213 1        66.302          38.000  
G 9  23245964.107 1 122158366.889 1     -2687.203          38.000  
C16  38945217.093 1 202797931.367 1     -1834.341          39.000  
C 5  39732754.485 4 206898846.31722        42.705          34.000  
C 6  38510342.345 2 200533450.011 1     -1739.423          37.000  
G26  24881815.949 2 130754851.626 1     -2824.985          34.000  
G 4  24372999.769 4 128080988.599 2     -3307.522          34.000  
G 1  23719537.199 1 124647060.565 1      4025.766          39.000  
C28  25599618.027 1 133303908.523 1      3371.099          39.000  
> 2021  6  9  0 38 50.9990000  0 25                     
G 8  19737309.535 1 103720251.801 1      -307.320          48.000  
G27  20849105.119 1 109562781.928 1     -2392.269          45.000  
G 7  20596405.750 1 108234825.516 1      1745.557          45.000  
C 3  37291597.962 1 194187109.721 1        86.683          42.000  
C 1  37875752.526 1 197228948.574 1        48.224          42.000  
G16  22810208.115 1 119868444.550 1     -2579.940          41.000  
G21  21694487.680 1 114005297.427 1      2784.812          43.000  
G30  23325028.609 1 122573869.092 1      3278.102          37.000  
C 7  35730859.091 1 186059934.175 1       139.262          45.000  
C25  21752499.050 1 113270921.734 1      -990.423          49.000  
C11  21195518.245 1 110370600.087 1       158.441          45.000  
C10  36437156.933 1 189737801.955 1       325.791          43.000  
C23  22346957.906 1 116366441.516 1      1808.583          47.000  
C 9  37107947.726 1 193230781.035 1     -1595.412          41.000  
C 2  37907219.735 1 197392790.633 1        42.168          38.000  
C12  23394593.733 1 121821752.989 1     -2567.480          41.000  
C 4  38613993.567 1 201073178.897 1        65.594          38.000  
G 9  23246475.442 1 122161054.264 1     -2687.665          38.000  
C16  38945569.255 1 202799765.939 1     -1834.839          39.000  
C 5  39732746.082 2 206898803.92922        42.167          34.000  
C 6  38510676.386 2 200535189.808 1     -1740.375          37.000  
G26  24882353.782 2 130757676.675 1     -2825.761          34.000  
G 4  24373628.936 4 128084296.182 2     -3308.194          34.000  
G 1  23718771.483 1 124643034.934 1      4024.950          39.000  
C28  25598970.720 1 133300537.554 1      3370.663          39.000  
> 2021  6  9  0 38 51.9990000  0 25                     
G 8  19737368.107 1 103720559.215 1      -307.929          48.000  
G27  20849560.457 1 109565174.205 1     -2392.682          45.000  
G 7  20596073.638 1 108233080.210 1      1745.007          45.000  
C 3  37291581.742 1 194187023.027 1        86.641          42.000  
C 1  37875743.225 1 197228900.167 1        48.429          42.000  
G16  22810699.364 1 119871024.521 1     -2580.167          41.000  
G21  21693958.415 1 114002512.733 1      2784.466          43.000  
G30  23324405.017 1 122570591.168 1      3277.764          37.000  
C 7  35730832.322 1 186059794.647 1       139.395          45.000  
C25  21752689.318 1 113271912.227 1      -990.702          48.000  
C11  21195487.646 1 110370441.752 1       158.004          45.000  
C10  36437094.470 1 189737476.039 1       325.801          43.000  
C23  22346610.498 1 116364632.910 1      1808.387          47.000  
C 9  37108253.960 1 193232376.204 1     -1595.375          40.000  
C 2  37907211.499 2 197392748.003 1        42.652          38.000  
C12  23395086.798 1 121824320.550 1     -2567.889          41.000  
C 4  38613980.898 1 201073112.760 1        65.948          38.000  
G 9  23246986.785 1 122163742.066 1     -2688.071          38.000  
C16  38945921.558 1 202801600.748 1     -1834.582          39.000  
C 5  39732738.273 2 206898762.74131        42.261          34.000  
C 6  38511010.732 2 200536929.841 1     -1740.002          37.000  
G26  24882891.519 2 130760501.939 1     -2825.111          34.000  
G 4  24374258.645 2 128087603.917 1     -3308.120          35.000  
G 1  23718005.672 1 124639009.484 1      4025.539          39.000  
C28  25598323.396 1 133297166.922 1      3370.496          39.000  
> 2021  6  9  0 38 52.9990000  0 25                     
G 8  19737426.888 1 103720867.548 1      -308.755          48.000  
G27  20850016.152 1 109567567.236 1     -2393.365          45.000  
G 7  20595741.909 1 108231335.825 1      1743.994          45.000  
C 3  37291564.615 1 194186936.710 1        86.323          42.000  
C 1  37875734.046 1 197228852.198 1        47.796          42.000  
G16  22811190.143 1 119873604.988 1     -2580.432          41.000  
G21  21693429.062 1 113999728.853 1      2783.444          43.000  
G30  23323781.520 1 122567313.867 1      3276.731          37.000  
C 7  35730805.466 1 186059655.520 1       138.972          45.000  
C25  21752879.718 1 113272903.533 1      -991.795          48.000  
C11  21195457.326 1 110370284.375 1       156.964          45.000  
C10  36437032.207 1 189737150.527 1       325.366          43.000  
C23  22346263.291 1 116362825.002 1      1807.701          47.000  
C 9  37108560.255 1 193233971.897 1     -1595.819          40.000  
C 2  37907203.158 2 197392705.791 1        41.927          38.000  
C12  23395580.316 1 121826888.780 1     -2568.494          41.000  
C 4  38613967.950 1 201073047.017 1        65.961          38.000  
G 9  23247498.321 1 122166430.531 1     -2688.609          38.000  
C16  38946274.157 1 202803436.040 1     -1835.730          40.000  
C 5  39732730.368 2 206898720.96321        41.252          34.000  
C 6  38511344.808 1 200538670.314 1     -1740.759          38.000  
G26  24883429.343 2 130763327.737 1     -2825.880          34.000  
G 4  24374888.135 4 128090912.023 2     -3308.684          36.000  
G 1  23717240.069 1 124634984.446 1      4024.972          38.000  
C28  25597676.368 1 133293796.780 1      3370.259          39.000  
> 2021  6  9  0 38 53.9990000  0 25                     
G 8  19737485.617 1 103721176.739 1      -309.469          48.000  
G27  20850471.646 1 109569960.954 1     -2393.962          45.000  
G 7  20595409.989 1 108229592.283 1      1743.164          45.000  
C 3  37291548.779 1 194186850.763 1        85.765          42.000  
C 1  37875724.858 1 197228804.561 1        47.632          42.000  
G16  22811681.236 1 119876185.957 1     -2581.231          41.000  
G21  21692899.719 1 113996945.688 1      2782.695          43.000  
G30  23323157.989 1 122564037.108 1      3276.520          37.000  
C 7  35730778.794 1 186059516.696 1       138.625          45.000  
C25  21753070.187 1 113273895.583 1      -992.336          48.000  
C11  21195427.512 1 110370127.869 1       156.018          45.000  
C10  36436969.753 1 189736825.340 1       325.042          43.000  
C23  22345916.293 1 116361017.720 1      1807.103          47.000  
C 9  37108867.048 1 193235568.056 1     -1596.384          40.000  
C 2  37907195.340 2 197392663.924 1        41.371          38.000  
C12  23396073.774 1 121829457.629 1     -2569.305          41.000  
C 4  38613955.727 2 201072981.668 1        65.338          38.000  
G 9  23248010.031 1 122169119.591 1     -2689.314          38.000  
C16  38946626.634 1 202805271.668 1     -1835.645          40.000  
C 5  39732722.524 2 206898679.51521        41.250          35.000  
C 6  38511679.215 1 200540411.150 1     -1741.095          38.000  
G26  24883967.212 2 130766153.889 1     -2826.546          34.000  
G 4  24375517.565 4 128094220.388 2     -3308.585          35.000  
G 1  23716474.092 1 124630959.762 1      4024.663          38.000  
C28  25597029.261 1 133290427.093 1      3369.507          39.000  
> 2021  6  9  0 38 54.9990000  0 25                     
G 8  19737544.755 1 103721486.868 1      -310.867          48.000  
G27  20850927.166 1 109572355.429 1     -2395.030          45.000  
G 7  20595078.225 1 108227849.646 1      1741.888          45.000  
C 3  37291532.201 1 194186765.230 1        84.833          42.000  
C 1  37875715.828 1 197228757.340 1        46.816          42.000  
G16  22812172.390 1 119878767.440 1     -2582.149          41.000  
G21  21692370.323 1 113994163.331 1      2781.811          43.000  
G30  23322534.668 1 122560760.995 1      3275.110          37.000  
C 7  35730752.365 1 186059378.288 1       137.943          45.000  
C25  21753260.979 1 113274888.448 1      -993.552          48.000  
C11  21195397.524 1 110369972.305 1       154.733          45.000  
C10  36436907.177 1 189736500.511 1       324.396          43.000  
C23  22345569.366 1 116359211.115 1      1806.077          47.000  
C 9  37109173.718 1 193237164.744 1     -1597.393          40.000  
C 2  37907187.365 1 197392622.444 1        40.913          38.000  
C12  23396567.161 1 121832027.144 1     -2569.940          41.000  
C 4  38613943.154 1 201072916.720 1        64.362          38.000  
G 9  23248521.829 1 122171809.307 1     -2690.551          38.000  
C16  38946979.469 1 202807107.764 1     -1836.539          40.000  
C 5  39732714.637 2 206898638.44321        41.041          35.000  
C 6  38512013.710 1 200542152.455 1     -1741.852          38.000  
G26  24884505.036 2 130768980.499 1     -2827.291          34.000  
G 4  24376147.204 2 128097529.121 1     -3309.246          36.000  
G 1  23715708.263 2 124626935.523 1      4023.880          38.000  
C28  25596382.094 1 133287057.917 1      3368.445          39.000  
> 2021  6  9  0 38 55.9990000  0 25                     
G 8  19737603.955 1 103721798.355 1      -312.364          48.000  
G27  20851383.080 1 109574751.100 1     -2396.222          45.000  
G 7  20594746.715 1 108226108.352 1      1740.698          45.000  
C 3  37291515.964 1 194186680.514 1        84.112          42.000  
C 1  37875706.728 1 197228710.958 1        45.944          42.000  
G16  22812663.805 1 119881349.866 1     -2583.075          41.000  
