     3.03           OBSERVATION DATA    M: Mixed            RINEX VERSION / TYPE
RTKCONV 2.4.3 Emlid                     20210225 025858 UTC PGM / RUN BY / DATE 
log: D:\SHMILY\RTK\blox\COM8_210225_025158.ubx              COMMENT             
format: u-blox                                              COMMENT             
PING                                                        MARKER NAME         
NIE                                                         MARKER NUMBER       
                                                            MARKER TYPE         
                                                            OBSERVER / AGENCY   
                                                            REC # / TYPE / VERS 
                                                            ANT # / TYPE        
 -2168783.9853  4386829.6042  4076914.4720                  APPROX POSITION XYZ 
        0.0000        0.0000        0.0000                  ANTENNA: DELTA H/E/N
G    4 C1C L1C D1C S1C                                      SYS / # / OBS TYPES 
E    4 C1C L1C D1C S1C                                      SYS / # / OBS TYPES 
C    4 C1I L1I D1I S1I                                      SYS / # / OBS TYPES 
     1.000                                                  INTERVAL            
  2021     2    25     2    52    8.9940000     GPS         TIME OF FIRST OBS   
  2021     2    25     2    58   55.9980000     GPS         TIME OF LAST OBS    
G                                                           SYS / PHASE SHIFT   
E                                                           SYS / PHASE SHIFT   
C                                                           SYS / PHASE SHIFT   
  0                                                         GLONASS SLOT / FRQ #
 C1C    0.000 C1P    0.000 C2C    0.000 C2P    0.000        GLONASS COD/PHS/BIS 
                                                            END OF HEADER       
> 2021  2 25  2 52  8.9940000  0 25                     
G31  18561183.845 2  97539673.59421      -184.675          47.000  
G26  18801323.533 2  98801626.91821      2231.538          46.000  
G32  19884523.586 1 104493884.48521     -2264.449          48.000  
G22  21121767.441 2 110995655.32921      -545.339          41.000  
G29  20993404.739 2 110321094.34321      1288.474          46.000  
G 3  21025327.086 2 110488831.68521       973.765          38.000  
G16  20956417.991 2 110126724.14121      3944.357          40.000  
G25  21242397.010 2 111629543.93721     -3067.100          42.000  
C16  34163547.246 2 177898528.28321       382.245          48.000  
C 6  34074302.818 2 177433807.22321       416.064          46.000  
C 9  34012334.949 2 177111125.68421       774.536          45.000  
C 7  34960610.580 2 182049032.42821      1079.217          44.000  
C26  20307073.137 2 105744223.98221      1643.874          46.000  
C21  21097758.399 2 109861532.17121     -1797.726          48.000  
C 3  35871629.491 2 186792950.99421       336.051          43.000  
C10  36195245.734 2 188478112.87821      1354.305          41.000  
C 1  36451526.943 2 189812625.22221       346.239          44.000  
C 2  36311204.472 4 189081946.27821       310.595          38.000  
C 4  37217781.360 2 193802728.34021       354.066          41.000  
C29  23296631.684 2 121311640.26721      2288.870          43.000  
C 5  38339202.938 4 199642275.55922       319.435          35.000  
G 4  22546021.128 4 118480120.01421      3764.330          37.000  
C22  24401098.456 8 127062845.79623     -3129.583          31.000  
C24  24502880.847 8 127592807.67025      2918.097          26.000  
C30  24147586.770 4 125742762.72222        54.136          32.000  
> 2021  2 25  2 52  9.9940000  0 25                     
G31  18561219.252 1  97539858.84021      -189.836          47.000  
G26  18800898.551 1  98799396.02521      2226.311          46.000  
G32  19884954.711 1 104496149.55221     -2269.651          48.000  
G22  21121871.445 2 110996201.28721      -550.690          41.000  
G29  20993159.616 2 110319806.73521      1282.891          46.000  
G 3  21025143.457 2 110487858.81121       968.294          38.000  
G16  20955667.910 2 110122780.36421      3939.212          41.000  
G25  21242980.650 2 111632611.57021     -3072.248          42.000  
C16  34163474.443 1 177898146.51821       377.277          48.000  
C 6  34074223.088 1 177433391.53121       411.353          46.000  
C 9  34012186.116 1 177110351.56021       769.666          45.000  
C 7  34960402.731 1 182047953.68821      1074.300          44.000  
C26  20306757.340 1 105742580.46321      1639.119          46.000  
C21  21098103.757 1 109863330.45721     -1802.895          48.000  
C 3  35871565.013 1 186792615.43921       331.282          43.000  
C10  36194985.621 1 188476758.86621      1349.636          41.000  
C 1  36451460.370 2 189812279.47421       341.528          43.000  
C 2  36311144.845 2 189081635.81821       306.029          38.000  
C 4  37217713.566 1 193802374.18811       349.031          41.000  
C29  23296192.235 1 121309352.08721      2283.755          43.000  
C 5  38339142.560 2 199641956.38821       314.365          36.000  
G 4  22545306.157 2 118476355.69121      3759.971          37.000  
C22  24401699.528 8 127065975.63923     -3133.912          31.000  
C24  24502322.789 8 127589889.81125      2913.418          27.000  
C30  24147576.353 4 125742709.49622        48.815          33.000  
> 2021  2 25  2 52 10.9980000  0 25                     
G31  19760425.926 1 103841731.41121      -196.821          47.000  
G26  19999645.324 1 105098852.56821      2219.109          46.000  
G32  21084557.138 1 110800102.09221     -2277.416          48.000  
G22  22321146.803 2 117298434.62721      -557.551          41.000  
G29  22192086.074 2 116620206.89521      1275.062          46.000  
G 3  22224129.421 2 116788573.48021       960.964          38.000  
G16  22154088.888 2 116420523.78321      3932.354          41.000  
G25  22442735.732 1 117937366.56121     -3079.567          42.000  
C16  35362572.472 1 184142163.78221       370.563          48.000  
C 6  35273314.521 1 183677374.87421       404.474          46.000  
C 9  35211208.585 1 183353976.38721       763.196          45.000  
C 7  36159366.795 1 188291273.94821      1067.481          44.000  
C26  21505613.020 1 111985336.03221      1632.235          46.000  
C21  22297620.416 1 116109528.02721     -1810.022          48.000  
C 3  37070671.819 1 193036678.757 1       324.313          43.000  
C10  37393896.758 2 194719803.78721      1342.959          41.000  
C 1  37650565.118 1 196056332.24311       334.274          43.000  
C 2  37510256.520 2 195325724.15021       299.475          38.000  
C 4  38416816.970 2 200046419.582 1       341.748          41.000  
C29  24494924.141 1 127551463.32921      2276.063          43.000  
C 5  39538252.264 2 205886035.98021       308.138          36.000  
G 4  23743761.634 2 124774278.40421      3752.943          37.000  
C22  25601474.713 8 133313504.37323     -3140.526          30.000  
C24  25700935.754 8 133831370.98924      2906.014          27.000  
C30  25346737.098 4 131987055.88322        41.122          33.000  
> 2021  2 25  2 52 11.9980000  0 25                     
G31  19760463.688 1 103841930.26521      -202.097          47.000  
G26  19999223.692 1 105096635.66021      2213.354          46.000  
G32  21084991.230 1 110802381.07721     -2282.719          48.000  
G22  22321253.197 1 117298994.51321      -563.548          41.000  
G29  22191844.232 1 116618933.69321      1269.620          45.000  
G 3  22223946.455 2 116787614.76921       955.472          38.000  
G16  22153340.361 2 116416593.54821      3926.863          40.000  
G25  22443322.129 2 117940447.74321     -3084.609          42.000  
C16  35362501.607 1 184141795.07421       365.424          48.000  
C 6  35273237.095 1 183676972.25121       399.377          46.000  
C 9  35211062.649 1 183353215.18121       758.026          45.000  
C 7  36159162.261 1 188290208.31421      1062.086          44.000  
C26  21505300.051 1 111983705.78021      1627.146          46.000  
C21  22297968.653 1 116111340.00921     -1815.444          48.000  
C 3  37070609.696 1 193036356.061 1       319.139          43.000  
C10  37393639.158 1 194718462.79821      1337.683          41.000  
C 1  37650501.110 1 196055999.512 1       329.047          43.000  
C 2  37510199.388 2 195325425.99411       294.284          37.000  
C 4  38416751.706 1 200046078.973 1       336.910          41.000  
C29  24494487.379 1 127549188.87721      2270.868          43.000  
C 5  39538193.125 2 205885729.557 1       303.039          35.000  
G 4  23743047.502 2 124770527.12021      3747.921          37.000  
C22  25602072.662 8 133316647.20722     -3145.824          31.000  
C24  25700378.673 4 133828466.07024      2902.116          27.000  
C30  25346727.692 4 131987016.73522        35.666          33.000  
> 2021  2 25  2 52 12.9980000  0 25                     
G31  19760502.986 2 103842136.29321      -211.148          47.000  
G26  19998803.421 2 105094426.50521      2204.374          46.000  
G32  21085426.072 2 110804667.83521     -2291.447          47.000  
G22  22321361.214 2 117299561.92321      -572.307          41.000  
G29  22191603.471 2 116617668.22421      1260.637          44.000  
G 3  22223765.235 2 116786663.52321       945.595          39.000  
G16  22152593.946 2 116412670.94921      3917.956          40.000  
G25  22443909.660 2 117943535.98221     -3093.625          42.000  
C16  35362432.138 2 184141433.42321       356.976          48.000  
C 6  35273160.872 2 183676576.72021       390.814          46.000  
C 9  35210917.952 2 183352460.85921       749.261          46.000  
C 7  36158959.070 2 188289149.98021      1053.833          44.000  
C26  21504988.529 2 111982082.71121      1618.080          47.000  
C21  22298318.059 2 116113159.67121     -1824.253          48.000  
C 3  37070549.179 2 193036040.720 1       311.058          42.000  
C10  37393383.198 2 194717129.17721      1329.395          41.000  
C 1  37650438.987 2 196055674.119 1       321.174          43.000  
C 2  37510143.669 2 195325135.551 1       285.906          38.000  
C 4  38416687.698 2 200045745.698 1       328.925          40.000  
C29  24494051.996 2 127546921.91421      2262.296          43.000  
C 5  39538135.522 4 205885430.216 2       294.841          36.000  
G 4  23742334.050 4 124766782.59522      3738.748          37.000  
C22  25602687.451 8 133319797.55723     -3154.243          30.000  
C24  25699815.956 4 133825568.41724      2892.529          27.000  
C30  25346725.231 8 131986984.81123        26.781          33.000  
> 2021  2 25  2 52 13.9980000  0 25                     
G31  19760544.029 1 103842351.63521      -219.455          47.000  
G26  19998384.773 1 105092226.19821      2196.167          46.000  
G32  21085863.060 1 110806962.93421     -2299.346          48.000  
G22  22321471.167 1 117300138.70421      -580.906          41.000  
G29  22191364.333 1 116616411.78621      1252.134          45.000  
G 3  22223585.794 2 116785722.16021       936.943          39.000  
G16  22151849.223 2 116408756.67621      3910.359          40.000  
G25  22444499.286 1 117946633.43821     -3101.583          42.000  
C16  35362364.047 1 184141080.42521       349.152          48.000  
C 6  35273086.482 1 183676189.76521       383.008          46.000  
C 9  35210774.965 1 183351715.45221       741.412          46.000  
C 7  36158757.677 1 188288099.90521      1046.204          44.000  
C26  21504678.509 1 111980468.67421      1609.905          47.000  
C21  22298668.878 1 116114987.82421     -1832.438          48.000  
C 3  37070490.215 2 193035733.217 1       303.489          43.000  
C10  37393128.564 1 194715803.65721      1321.511          41.000  
C 1  37650378.069 1 196055356.507 1       313.915          43.000  
C 2  37510089.748 2 195324853.234 1       278.404          38.000  
C 4  38416625.122 2 200045420.201 1       321.667          41.000  
C29  24493618.079 1 127544663.37421      2254.559          43.000  
C 5  39538079.384 2 205885139.285 1       287.275          36.000  
G 4  23741622.796 2 124763047.54021      3731.130          36.000  
C22  25603293.305 8 133322955.35423     -3161.946          30.000  
C24  25699249.714 8 133822679.39225      2883.611          27.000  
C30  25346708.654 8 131986962.52924        17.909          28.000  
> 2021  2 25  2 52 14.9980000  0 25                     
G31  19760586.660 4 103842576.75022      -223.090          47.000  
G26  19997967.818 4 105090036.15522      2191.577          47.000  
G32  21086302.334 4 110809268.31322     -2303.133          48.000  
G22  22321582.866 4 117300725.57022      -585.288          41.000  
G29  22191127.185 4 116615165.66622      1248.090          45.000  
G 3  22223408.290 4 116784790.84223       933.101          38.000  
G16  22151105.477 4 116404852.57823      3905.648          40.000  
G25  22445090.115 4 117949740.59222     -3104.733          42.000  
C16  35362298.137 4 184140737.04122       345.093          48.000  
C 6  35273014.046 4 183675812.44522       379.218          47.000  
C 9  35210633.514 4 183350979.49622       737.781          46.000  
C 7  36158557.820 4 188287059.63022      1042.458          44.000  
C26  21504370.425 4 111978864.32222      1606.430          47.000  
C21  22299022.157 4 116116826.12422     -1836.578          49.000  
C 3  37070432.716 4 193035435.506 2       299.922          43.000  
C10  37392875.833 4 194714487.97322      1317.785          41.000  
C 1  37650318.895 4 196055048.741 2       309.662          43.000  
C 2  37510037.432 4 195324580.587 3       274.775          38.000  
C 4  38416564.413 4 200045104.536 2       318.409          41.000  
C29  24493186.308 4 127542414.88522      2250.772          43.000  
C 5  39538024.887 4 205884857.952 3       284.041          36.000  
G 4  23740913.218 4 124759321.87223      3727.984          36.000  
C22  25603893.715 8 133326123.04324     -3164.732          30.000  
C24  25698693.785 9                      2882.838          26.000  
C30  25346714.866 8 131986949.96324        14.395          33.000  
> 2021  2 25  2 52 15.9980000  0 25                     
G31  19760630.198 2 103842805.76621      -231.321          47.000  
G26  19997551.752 2 105087850.35321      2183.221          46.000  
G32  21086742.080 2 110811577.88821     -2311.752          48.000  
G22  22321695.420 2 117301316.61721      -593.924          41.000  
G29  22190891.153 2 116613923.84721      1239.544          45.000  
G 3  22223231.485 2 116783863.77622       924.103          38.000  
G16  22150363.476 2 116400952.50821      3897.756          40.000  
G25  22445681.835 2 117952851.54521     -3113.240          41.000  
C16  35362233.135 2 184140396.84411       337.329          48.000  
C 6  35272942.360 2 183675438.823 1       371.375          47.000  
C 9  35210492.935 2 183350246.63311       730.151          46.000  
C 7  36158358.556 2 188286022.69511      1034.192          44.000  
C26  21504063.162 2 111977263.849 1      1598.104          47.000  
C21  22299376.048 2 116118668.07611     -1844.940          49.000  
C 3  37070376.317 2 193035141.566 1       291.565          43.000  
C10  37392623.834 2 194713176.123 1      1309.371          41.000  
C 1  37650260.315 2 196054744.711 1       301.937          43.000  
C 2  37509985.972 4 195324311.713 2       266.670          37.000  
C 4  38416504.436 2 200044792.641 1       309.846          41.000  
C29  24492755.166 2 127540169.89811      2242.502          43.000  
C 5  39537971.559 4 205884580.347 2       275.292          36.000  
G 4  23740204.512 4 124755599.81822      3719.822          36.000  
C22  25604504.559 8 133329294.17013     -3173.649          29.000  
C24  25698139.200 9                      2874.196          26.000  
C30  25346711.097 8 131986941.10313         5.506          32.000  
> 2021  2 25  2 52 16.9980000  0 25                     
G31  19760674.766 2 103843039.12421      -236.857          47.000  
G26  19997136.315 2 105085669.07621      2177.845          46.000  
G32  21087182.523 2 110813891.80121     -2317.307          48.000  
G22  22321808.951 2 117301912.25421      -599.112          41.000  
G29  22190655.820 2 116612686.61921      1233.311          45.000  
G 3  22223056.058 4 116782941.42322       918.753          38.000  
G16  22149622.226 2 116397056.75321      3892.213          40.000  
G25  22446274.671 2 117955966.72621     -3118.724          41.000  
C16  35362168.814 1 184140061.191 1       332.422          48.000  
C 6  35272871.478 2 183675069.232 1       366.370          47.000  
C 9  35210352.966 2 183349518.348 1       724.896          46.000  
C 7  36158160.321 2 188284990.297 1      1029.101          44.000  
C26  21503756.561 2 111975667.636 1      1592.868          47.000  
C21  22299731.020 2 116120514.903 1     -1850.285          49.000  
C 3  37070320.337 2 193034851.534 1       286.787          43.000  
C10  37392372.691 2 194711868.300 1      1304.488          41.000  
C 1  37650202.554 2 196054444.593 1       296.988          43.000  
C 2  37509935.226 4 195324046.771 2       262.072          37.000  
C 4  38416445.315 2 200044484.633 1       304.301          41.000  
C29  24492324.913 2 127537929.654 1      2236.781          43.000  
C 5  39537919.017 2 205884306.685 2       270.499          36.000  
G 4  23739496.452 2 124751881.94321      3714.540          36.000  
C22  25605120.151 8 133332469.609 5     -3178.846          29.000  
C24  25697591.978 9                      2868.422          26.000  
C30  25346709.334 8 131986937.209 3        -0.226          31.000  
> 2021  2 25  2 52 17.9980000  0 25                     
G31  19760720.189 1 103843277.81721      -240.765          47.000  
G26  19996722.204 1 105083493.37521      2173.341          46.000  
G32  21087623.839 1 110816211.12621     -2321.530          48.000  
G22  22321923.390 1 117302513.50621      -603.595          41.000  
G29  22190421.585 1 116611454.99121      1229.335          45.000  
G 3  22222881.590 2 116782024.80021       914.378          38.000  
G16  22148881.935 1 116393166.33421      3888.335          40.000  
G25  22446868.327 1 117959087.11821     -3122.627          41.000  
C16  35362105.068 1 184139730.616 1       328.497          48.000  
C 6  35272801.206 1 183674704.716 1       362.421          47.000  
C 9  35210214.028 1 183348795.074 1       721.271          46.000  
C 7  36157963.204 1 188283963.018 1      1025.073          44.000  
C26  21503450.973 1 111974076.697 1      1588.624          47.000  
C21  22300086.656 1 116122367.166 1     -1854.455          49.000  
C 3  37070265.648 1 193034566.505 1       282.870          43.000  
C10  37392122.472 1 194710565.565 1      1300.741          41.000  
C 1  37650145.789 1 196054149.448 1       293.237          43.000  
C 2  37509885.284 2 195323786.825 1       258.119          37.000  
C 4  38416387.153 1 200044181.571 1       300.884          41.000  
C29  24491895.865 1 127535694.678 1      2232.852          43.000  
C 5  39537867.120 2 205884038.039 1       266.036          36.000  
G 4  23738789.335 2 124748169.19221      3710.843          36.000  
C22  25605725.761 8 133335650.012 4     -3182.537          29.000  
C24  25697041.005 9                      2864.974          26.000  
C30  25346715.075 4 131986938.759 2        -3.775          32.000  
> 2021  2 25  2 52 18.9980000  0 25                     
G31  19760766.589 4 103843521.92322      -249.775          47.000  
G26  19996308.982 4 105081323.38522      2164.005          46.000  
G32  21088065.976 4 110818536.02122     -2330.352          48.000  
G22  22322038.526 4 117303120.41922      -612.427          41.000  
G29  22190188.398 4 116610229.12122      1219.963          45.000  
G 3  22222708.100 4 116781113.95022       905.079          38.000  
G16  22148142.517 4 116389281.39122      3879.698          40.000  
G25  22447463.031 4 117962212.81522     -3131.371          41.000  
C16  35362042.527 4 184139405.209 2       319.751          48.000  
C 6  35272732.277 4 183674345.363 2       353.711          47.000  
C 9  35210076.241 4 183348076.925 2       712.494          46.000  
C 7  36157766.906 4 188282940.957 2      1016.721          44.000  
C26  21503146.345 4 111972491.072 2      1580.312          47.000  
C21  22300443.443 4 116124224.989 2     -1863.442          49.000  
C 3  37070211.901 4 193034286.607 2       274.375          43.000  
C10  37391873.580 4 194709268.113 2      1291.890          41.000  
C 1  37650090.227 4 196053859.450 2       284.413          43.000  
C 2  37509836.074 4 195323532.053 2       249.429          38.000  
C 4  38416329.829 4 200043883.609 2       292.895          41.000  
C29  24491467.898 4 127533465.135 2      2223.873          43.000  
C 5  39537816.601 4 205883774.492 2       258.436          36.000  
G 4  23738083.718 4 124744461.56422      3702.841          36.000  
C22  25606340.619 8 133338835.424 5     -3185.389          29.000  
C24  25696500.415 9               7      2861.515          27.000  
C30  25346715.232 8 131986945.372 4        -3.015          31.000  
> 2021  2 25  2 52 19.9980000  0 24                     
G31  19760816.287 8 103843781.56623      -268.588          47.000  
G26  19995899.042 8 105079169.06724      2145.189          46.000  
G32  21088511.043 8 110820876.43924     -2348.941          48.000  
G22  22322156.874 8 117303743.15223      -631.834          41.000  
G29  22189958.073 8 116609019.01624      1201.204          45.000  
G 3  22222537.769 8 116780219.06324       885.836          38.000  
G16  22147406.135 8 116385411.91324      3860.879          41.000  
G25  22448060.893 8 117965353.97824     -3150.298          41.000  
C16  35361983.196 8 184139094.922 3       301.520          48.000  
C 6  35272666.333 8 183674001.136 4       335.333          47.000  
C 9  35209941.298 8 183347373.915 4       694.220          46.000  
C 7  36157573.645 8 188281934.053 4       998.484          44.000  
C26  21502844.875 8 111970920.815 3      1561.913          47.000  
C21  22300803.144 8 116126098.261 4     -1882.057          49.000  
C 3  37070160.807 8 193034021.675 4       256.760          43.000  
C10  37391627.270 8 194707985.668 3      1274.240          41.000  
C 1  37650037.423 8 196053584.383 4       266.848          43.000  
C 2  37509789.918 8 195323292.272 4       231.510          38.000  
C 4  38416275.716 8 200043600.658 4       274.428          41.000  
C29  24491042.776 8 127531250.909 4      2205.467          43.000  
C 5  39537768.718 8 205883526.070 4       239.388          36.000  
G 4  23737380.927 8 124740769.36524      3683.658          36.000  
C22  25606954.134 9                     -3207.896          28.000  
C24  25695962.861 9               7      2838.279          28.000  
> 2021  2 25  2 52 20.9980000  0 25                     
G31  19760863.682 8 103844028.38124      -222.753          47.000  
G26  19995486.571 8 105077002.14324      2190.569          46.000  
G32  21088953.738 8 110823204.10924     -2304.186          48.000  
G22  22322272.970 8 117304353.28224      -587.000          41.000  
G29  22189725.269 8 116607796.36624      1246.609          46.000  
G 3  22222364.802 8 116779311.77024       930.309          38.000  
G16  22146667.171 8 116381529.57024      3905.763          41.000  
G25  22448655.753 8 117968482.17825     -3103.744          41.000  
C16  35361920.811 8 184138771.690 4       347.223          48.000  
C 6  35272597.631 8 183673643.940 4       381.250          47.000  
C 9  35209803.581 8 183346657.930 4       740.015          45.000  
C 7  36157377.906 8 188280914.241 4      1043.189          44.000  
C26  21502540.752 8 111969337.867 4      1606.133          46.000  
C21  22301160.507 8 116127958.941 4     -1837.545          49.000  
C 3  37070107.566 8 193033743.736 4       301.230          43.000  
C10  37391378.517 8 194706690.368 4      1318.814          41.000  
C 1  37649981.722 8 196053296.272 4       311.854          43.000  
C 2  37509741.424 8 195323039.466 4       276.433          38.000  
C 4  38416218.706 8 200043304.656 4       319.000          41.000  
C29  24490615.158 8 127529023.941 4      2250.721          43.000  
C 5  39537718.723 8 205883264.599 5       284.846          36.000  
G 4  23736677.160 8 124737064.08724      3728.719          37.000  
C22  25607552.694 9                     -3166.281          27.000  
C24  25695421.590 9                      2879.467          28.000  
C30  25346725.895 9               6        13.566          33.000  
> 2021  2 25  2 52 21.9980000  0 25                     
G31  19760906.069 8 103844250.98524      -226.859          47.000  
G26  19995070.034 8 105074811.30724      2186.348          46.000  
G32  21089392.314 8 110825507.73824     -2307.921          49.000  
G22  22322384.913 8 117304939.44425      -590.430          41.000  
G29  22189488.348 8 116606549.86124      1241.968          46.000  
G 3  22222188.031 8 116778380.48625       926.593          38.000  
G16  22145924.560 8 116377623.11624      3902.308          41.000  
G25  22449246.164 8 117971586.07924     -3108.373          41.000  
C16  35361854.134 8 184138424.303 4       343.158          48.000  
C 6  35272524.428 8 183673262.609 4       376.941          46.000  
C 9  35209661.013 8 183345917.701 4       735.931          45.000  
C 7  36157177.141 8 188279870.304 4      1039.860          44.000  
C26  21502232.041 8 111967730.837 4      1602.828          46.000  
C21  22301513.141 8 116129795.826 4     -1841.128          48.000  
C 3  37070049.492 8 193033441.593 4       298.058          43.000  
C10  37391125.087 8 194705370.940 4      1315.286          41.000  
C 1  37649921.693 8 196052984.004 4       308.101          44.000  
C 2  37509688.742 8 195322762.473 5       272.805          38.000  
C 4  38416157.247 8 200042984.393 5       316.467          41.000  
C29  24490182.602 8 127526773.072 4      2246.383          43.000  
C 5  39537663.633 8 205882957.90235       282.210          34.000  
G 4  23735966.762 8 124733334.29225      3725.737          36.000  
C22  25608159.961 9                     -3167.157          27.000  
C24  25694846.483 9                      2870.181          26.000  
C30  25346736.085 9 131987008.41635         8.978          34.000  
> 2021  2 25  2 52 22.9980000  0 25                     
G31  19760949.136 8 103844477.72624      -221.789          47.000  
G26  19994654.074 8 105072624.60624      2191.986          46.000  
G32  21089831.257 8 110827815.52925     -2302.811          49.000  
G22  22322497.572 8 117305529.77125      -584.731          41.000  
G29  22189252.142 8 116605307.91125      1246.152          46.000  
G 3  22222011.680 8 116777453.59225       932.481          38.000  
G16  22145182.384 8 116373720.52325      3907.992          41.000  
G25  22449837.465 8 117974694.16924     -3103.614          41.000  
C16  35361788.469 8 184138080.729 4       348.413          48.000  
C 6  35272451.556 8 183672885.084 4       382.361          46.000  
C 9  35209519.561 8 183345181.243 4       741.632          45.000  
C 7  36156977.389 8 188278830.117 4      1045.484          44.000  
C26  21501924.097 8 111966127.702 4      1608.740          46.000  
C21  22301866.735 8 116131636.739 4     -1835.741          48.000  
C 3  37069992.412 8 193033143.038 4       303.787          43.000  
C10  37390872.426 8 194704055.161 4      1321.091          41.000  
C 1  37649862.764 8 196052675.434 5       313.423          44.000  
C 2  37509636.322 8 195322488.999 5       279.258          38.000  
C 4  38416096.555 8 200042667.971 5       321.166          41.000  
C29  24489751.181 8 127524526.420 4      2250.792          43.000  
C 5  39537609.083 8 205882675.74425       287.929          34.000  
G 4  23735257.393 8 124729608.35825      3732.090          35.000  
C22  25608774.383 9                     -3173.698          27.000  
C24  25694282.666 9                      2882.641          25.000  
C30  25346739.349 8 131986999.29425        13.483          35.000  
> 2021  2 25  2 52 23.9980000  0 25                     
G31  19760998.188 9               6      -263.464          47.000  
G26  19994243.697 9               6      2149.552          46.000  
G32  21090275.993 9               6     -2344.647          48.000  
G22  22322615.605 9               6      -627.524          41.000  
G29  22189021.834 9               6      1205.093          46.000  
G 3  22221841.331 9               6       889.504          38.000  
G16  22144445.374 9               6      3866.077          40.000  
G25  22450435.274 9               6     -3143.966          41.000  
C16  35361728.196 9               6       307.703          48.000  
C 6  35272385.035 9               6       341.705          46.000  
C 9  35209383.816 9               6       700.604          45.000  
C 7  36156783.517 9               6      1004.018          45.000  
C26  21501622.138 9               6      1566.508          46.000  
C21  22302226.192 9               6     -1877.470          49.000  
C 3  37069941.056 9               6       262.450          43.000  
C10  37390625.505 9               6      1279.617          41.000  
C 1  37649809.628 9               6       272.915          44.000  
C 2  37509589.084 9               6       237.554          38.000  
C 4  38416041.325 9               6       280.721          41.000  
C29  24489326.076 9               6      2210.418          44.000  
C 5  39537560.781 9               6       245.731          35.000  
G 4  23734553.730 9               7      3689.822          35.000  
C22  25609401.980 9               6     -3202.188          27.000  
C24  25693754.571 9               6      2842.866          26.000  
C30  25346726.907 9               7       -27.567          31.000  
> 2021  2 25  2 52 24.9980000  0 25                     
G31  19761050.940 9                      -289.209          47.000  
G26  19993837.281 9                      2122.266          46.000  
G32  21090724.795 9                     -2373.242          48.000  
G22  22322737.477 9                      -653.760          41.000  
G29  22188795.347 9                      1177.588          45.000  
G 3  22221674.594 9                       855.469          38.000  
G16  22143712.814 9                      3837.207          41.000  
G25  22451036.347 9                     -3169.629          41.000  
C16  35361671.797 9                       280.664          48.000  
C 6  35272321.761 9                       314.941          46.000  
C 9  35209251.631 9                       675.098          45.000  
C 7  36156593.240 9                       976.318          44.000  
C26  21501323.757 9                      1541.211          46.000  
C21  22302589.436 9                     -1904.736          48.000  
C 3  37069893.400 9                       233.398          43.000  
C10  37390382.389 9                      1252.979          41.000  
C 1  37649759.860 9                       245.361          43.000  
C 2  37509546.802 9               7       169.368          36.000  
C 4  38415989.969 9                       253.223          41.000  
C29  24488904.199 9                      2183.203          44.000  
C 5  39537516.510 9                       213.135          35.000  
G 4  23733854.012 9                      3661.230          37.000  
C22  25610021.114 9                     -3238.457          27.000  
C24  25693215.725 9                      2811.159          27.000  
C30  25346732.403 9                       -56.250          31.000  
> 2021  2 25  2 52 25.9980000  0 25                     
G31  19761106.275 9 103845314.26035      -297.784          47.000  
G26  19993434.443 9 105066206.67435      2115.097          46.000  
G32  21091176.704 9 110834881.20235     -2379.093          48.000  
G22  22322862.456 9 117307433.82835      -661.312          41.000  
G29  22188571.635 9 116601730.49035      1168.987          44.000  
G 3  22221510.789 9 116774826.85035       855.757          39.000  
G16  22142983.081 9 116362161.21035      3832.321          40.000  
G25  22451640.770 9 117984168.12735     -3179.348          43.000  
C16  35361618.120 9 184137192.95435       273.584          48.000  
C 6  35272262.151 9 183671893.64635       307.434          46.000  
C 9  35209122.848 9 183343110.88535       666.974          46.000  
C 7  36156406.138 9 188275862.64535       970.892          44.000  
C26  21501028.202 9 111961464.27835      1533.911          46.000  
C21  22302955.838 9 116137311.59635     -1911.214          48.000  
C 3  37069848.675 9 193032397.93535       229.406          42.000  
C10  37390142.535 9 194700252.17235      1246.539          41.000  
C 1  37649713.774 9 196051908.05135       238.661          44.000  
C 2  37509518.358 9                       154.199          34.000  
C 4  38415941.719 9 200041858.34135       247.175          41.000  
C29  24488485.639 9 127517938.88635      2175.587          46.000  
C 5  39537474.961 9 205881976.12435       213.756          35.000  
G 4  23733157.469 9 124718583.92935      3657.197          37.000  
C22  25610639.271 9                     -3234.417          26.000  
C24  25692674.507 9               7      2810.174          28.000  
C30  25346735.004 9               7       -58.865          26.000  
> 2021  2 25  2 52 26.9980000  0 24                     
G31  19761159.795 9                      -305.762          46.000  
G26  19993029.109 9                      2106.885          46.000  
G32  21091625.890 9                     -2356.982          46.000  
G22  22322985.480 9                      -671.826          40.000  
G29  22188346.004 9                      1160.791          45.000  
G 3  22221345.273 9                       848.340          38.000  
G16  22142250.556 9                      3821.728          40.000  
G25  22452243.448 9                     -3184.375          41.000  
C16  35361562.680 9                       265.771          47.000  
C 6  35272199.068 9                       299.722          43.000  
C 9  35208991.518 9                       659.473          45.000  
C 7  36156217.309 9                       964.453          44.000  
C26  21500729.420 9                      1618.262          41.000  
C21  22303320.547 9                     -1918.262          48.000  
C 3  37069801.071 9                       236.768          41.000  
C10  37389900.414 9                      1237.695          41.000  
C 1  37649664.826 9                       232.813          43.000  
C 2  37509474.523 9                       198.291          36.000  
C 4  38415890.625 9                       255.176          39.000  
C29  24488063.570 9                      2211.426          42.000  
C 5  39537430.655 9                       211.670          35.000  
G 4  23732459.460 9                      3637.646          37.000  
C24  25692118.508 9                      2802.179          20.000  
C30  25346741.827 9                       -78.687          25.000  
> 2021  2 25  2 52 27.9900000  0 23                     
G31  17362869.541 9               6      -246.969          47.000  
G26  17594280.054 9               6      2165.771          46.000  
G32  18693732.296 9               7     -2328.075          48.000  
G22  19924765.044 9               6      -610.525          41.000  
G29  19789777.140 9               6      1219.411          45.000  
G 3  19822835.670 9               6       906.092          38.000  
G16  19743174.798 9               6      3883.802          41.000  
G25  20054501.166 9               7     -3128.683          42.000  
C16  32963163.327 9               6       324.457          48.000  
C 6  32873793.538 9               6       358.411          46.000  
C 9  32810516.571 9               6       717.773          46.000  
C 7  33757684.201 9               6      1022.096          44.000  
C26  19102093.651 9               7      1584.715          46.000  
C21  19905341.047 9               6     -1860.884          48.000  
C 3  34671410.338 9               7       281.111          42.000  
C10  34991314.849 9               6      1297.825          41.000  
C 1  35251272.017 9               6       289.926          43.000  
C 2  35111086.897 9               7       255.861          37.000  
C 4  36017496.664 9               7       298.006          41.000  
C29  22089298.845 9               6      2226.076          44.000  
C 5  37139043.063 9               7       266.033          35.000  
G 4  21333417.241 9               6      3708.214          38.000  
C24  23293228.734 9                      2858.056          29.000  
> 2021  2 25  2 52 28.9900000  0 24                     
G31  17362920.390 8  91242760.81134      -269.865          47.000  
G26  17593871.370 8  92456419.76634      2141.936          46.000  
G32  18694179.703 8  98238574.19234     -2351.549          48.000  
G22  19924885.119 8 104705977.53434      -634.997          41.000  
G29  19789548.664 8 103994779.94234      1196.813          45.000  
G 3  19822667.013 8 104168818.22234       881.401          39.000  
G16  19742439.655 8 103747220.19333      3859.263          41.000  
G25  20055099.953 8 105390262.07434     -3150.528          42.000  
C16  32963104.224 8 171647504.09134       302.246          48.000  
C 6  32873728.763 8 171182097.95034       336.304          46.000  
C 9  32810382.623 8 170852239.67434       695.386          46.000  
C 7  33757491.742 8 175784086.54834       998.538          44.000  
C26  19101787.854 9  99468018.77734      1560.654          47.000  
C21  19905702.231 8 103654183.95634     -1884.695          48.000  
C 3  34671360.361 8 180542839.49933       257.486          42.000  
C10  34991069.674 8 182207649.96934      1274.133          41.000  
C 1  35251219.666 8 183562321.85133       267.853          43.000  
C 2  35111040.200 8 182832375.88334       232.333          37.000  
C 4  36017443.511 8 187552246.61134       275.509          41.000  
C29  22088875.171 8 115022537.34334      2203.879          45.000  
C 5  37138996.175 8 193392466.75834       240.542          36.000  
G 4  21332715.655 9 112104175.27734      3684.641          37.000  
C24  23292693.990 9 121291137.91735      2838.172          30.000  
C30  22948409.744 9               7       -33.953          29.000  
> 2021  2 25  2 52 29.9900000  0 25                     
G31  17362978.151 9                      -312.967          46.000  
G26  17593469.788 9                      2110.693          46.000  
G32  18694633.373 9                     -2383.057          46.000  
G22  19925012.052 9                      -674.316          41.000  
G29  19789327.308 9                      1153.844          44.000  
G 3  19822505.529 9                       827.393          39.000  
G16  19741711.073 9                      3806.934          39.000  
G25  20055705.597 9                     -3201.562          40.000  
C16  32963052.327 9                       259.204          47.000  
C 6  32873670.165 9                       293.982          46.000  
C 9  32810255.341 9                       652.936          45.000  
C 7  33757306.072 9                       957.198          44.000  
C26  19101494.515 9                      1519.158          45.000  
C21  19906069.925 9                     -1924.316          47.000  
C 3  34671317.154 9                       216.602          42.000  
C10  34990830.937 9                      1222.559          41.000  
C 1  35251174.313 9                       209.521          43.000  
C 2  35110999.855 9                       174.951          37.000  
C 4  36017396.622 9                       228.043          40.000  
C29  22088458.285 9                      2162.258          43.000  
C 5  37138956.161 9                       191.162          36.000  
G 4  21332020.700 9                      3635.010          37.000  
C22  23214898.109 9                     -3250.587          25.000  
C24  23292150.380 9                      2786.035          30.000  
C30  22948430.650 9                       -76.954          32.000  
> 2021  2 25  2 52 30.9900000  0 23                     
G31  17363043.886 9                      -346.973          46.000  
G26  17593072.551 9                      2073.764          34.000  
G32  18695095.228 9                     -2430.371          46.000  
G22  19925147.012 9                      -714.404          40.000  
G29  19789113.962 9                      1116.016          44.000  
G 3  19822351.426 9                       886.377          31.000  
G16  19740991.252 9                      3777.051          40.000  
G25  20056319.339 9                     -3230.762          40.000  
C16  32963008.666 9                       208.537          44.000  
C 6  32873621.025 9                       245.286          43.000  
C 9  32810136.697 9                       616.699          45.000  
C 7  33757128.498 9                       920.947          43.000  
C21  19906446.099 9                     -1960.596          46.000  
C 3  34671282.184 9                       180.420          41.000  
C10  34990600.874 9                      1193.457          40.000  
C 1  35251137.615 9                       191.309          42.000  
C 2  35110967.956 9                       239.014          34.000  
C 4  36017354.706 9                       204.541          38.000  
C29  22088049.409 9                      2125.439          43.000  
C 5  37138924.315 9                       208.887          34.000  
G 4  21331333.807 9                      3607.422          36.000  
C24  23291620.243 9                      2741.249          23.000  
C30  22948459.983 9                      -130.565          29.000  
> 2021  2 25  2 52 31.9900000  0 25                     
G31  17363109.045 9               6      -357.344          47.000  
G26  17592680.916 9                      2052.665          46.000  
G32  18695557.467 9                     -2439.370          47.000  
G22  19925281.658 9                      -721.238          41.000  
G29  19788900.423 9               7      1108.695          44.000  
G 3  19822194.845 9                       794.540          39.000  
G16  19740270.645 9               6      3771.086          40.000  
G25  20056933.307 9                     -3237.594          42.000  
C16  32962965.093 9                       215.093          47.000  
C 6  32873569.512 9               7       249.359          46.000  
C 9  32810016.779 9 170850335.59235       608.618          46.000  
C 7  33756950.471 9               7       912.454          44.000  
C26  19100922.550 9                      1462.793          45.000  
C21  19906821.994 9               7     -1970.957          48.000  
C 3  34671246.969 9               7       174.302          42.000  
C10  34990369.798 9 182204005.72135      1187.521          41.000  
C 1  35251100.167 9               7       183.260          43.000  
C 2  35110931.066 9               6       145.667          37.000  
C 4  36017316.560 9               7       189.586          40.000  
C29  22087640.952 9               7      2117.290          44.000  
C 5  37138891.072 9               7       155.507          36.000  
G 4  21330645.850 9                      3600.839          36.000  
C22  23216171.783 9                     -3294.065          27.000  
C24  23291086.615 9                      2745.520          26.000  
C30  22948481.482 9                      -122.927          32.000  
> 2021  2 25  2 52 32.9900000  0 25                     
G31  17363177.537 9               7      -365.667          47.000  
G26  17592293.661 9               7      2045.471          47.000  
G32  18696021.835 9               7     -2448.965          47.000  
G22  19925419.689 9               7      -732.301          41.000  
G29  19788690.270 9                      1098.687          45.000  
G 3  19822045.698 9                       783.803          39.000  
G16  19739553.389 9               7      3763.333          40.000  
G25  20057549.928 9                     -3246.379          42.000  
C16  32962923.980 9               7       208.466          48.000  
C 6  32873523.025 9               7       242.548          46.000  
C 9  32809900.264 9               7       601.752          46.000  
C 7  33756775.690 9                       903.093          44.000  
C26  19100643.294 9               7      1465.043          46.000  
C21  19907201.153 9                     -1980.537          48.000  
C 3  34671214.529 9                       163.190          43.000  
C10  34990142.125 9                      1179.503          41.000  
C 1  35251065.965 9                       173.532          43.000  
C 2  35110903.827 9               7       138.817          37.000  
C 4  36017281.381 9               7       180.809          41.000  
C29  22087234.780 9               7      2107.775          44.000  
C 5  37138862.087 9                       148.486          36.000  
G 4  21329961.644 9                      3588.507          37.000  
C22  23216810.077 9                     -3289.716          29.000  
C24  23290557.664 9               7      2739.705          29.000  
C30  22948506.436 9               7      -131.216          34.000  
> 2021  2 25  2 52 33.9900000  0 24                     
G31  17363246.203 9               7      -370.746          47.000  
G26  17591903.038 9               6      2039.827          46.000  
G32  18696486.534 9               6     -2452.873          47.000  
G22  19925557.947 9               6      -736.836          41.000  
G29  19788480.274 9               6      1095.002          45.000  
G 3  19821895.365 9               7       778.488          39.000  
G16  19738836.080 9               6      3759.390          41.000  
G25  20058166.549 9               6     -3249.909          42.000  
C16  32962883.182 9               7       203.625          48.000  
C 6  32873476.660 9               6       237.927          46.000  
C 9  32809783.731 9               6       597.516          46.000  
C 7  33756601.118 9               6       900.842          44.000  
C26  19100360.408 9               6      1461.481          46.000  
C21  19907580.346 9               6     -1984.703          48.000  
C 3  34671182.176 9               7       159.314          43.000  
C10  34989914.592 9               6      1175.188          41.000  
C 1  35251031.919 9               6       169.855          43.000  
C 2  35110876.569 9               6       135.074          37.000  
C 4  36017246.184 9               6       176.913          41.000  
C29  22086828.766 9               6      2104.164          44.000  
C 5  37138833.259 9               6       141.934          36.000  
G 4  21329277.543 9               7      3580.978          37.000  
C24  23290033.774 9                      2736.728          29.000  
C30  22948526.591 9               7      -135.656          34.000  
> 2021  2 25  2 52 34.9900000  0 25                     
G31  17363316.964 8  91244846.42932      -369.319          47.000  
G26  17591511.315 8  92444014.99932      2041.089          46.000  
G32  18696953.432 8  98253152.69032     -2452.256          47.000  
G22  19925698.264 8 104710250.90332      -735.612          41.000  
G29  19788272.093 8 103988070.79732      1095.041          45.000  
G 3  19821749.359 8 104163995.22033       780.028          39.000  
G16  19738121.023 8 103724525.98332      3759.930          41.000  
G25  20058785.124 8 105409626.58332     -3249.264          42.000  
C16  32962842.610 8 171646146.91632       204.883          48.000  
C 6  32873429.858 8 171180550.05132       238.770          46.000  
C 9  32809669.258 8 170848525.32332       598.523          46.000  
C 7  33756428.465 8 175778549.01432       900.900          44.000  
C26  19100080.036 8  99459096.13132      1462.603          46.000  
C21  19907961.878 8 103665948.07832     -1984.127          48.000  
C 3  34671151.604 8 180541752.33832       160.577          43.000  
C10  34989688.925 8 182200460.06132      1176.866          41.000  
C 1  35250999.724 8 183561173.06332       170.300          44.000  
C 2  35110851.214 8 182831381.50833       135.787          37.000  
C 4  36017212.644 8 187551043.28432       178.327          41.000  
C29  22086425.038 8 115009777.72332      2104.423          45.000  
C 5  37138806.142 8 193391476.10033       144.959          36.000  
G 4  21328594.926 8 112082524.01333      3586.606          37.000  
C22  23218079.703 9 120902602.28334     -3303.254          29.000  
C24  23289506.620 9               6      2741.149          29.000  
C30  22948550.567 9 119499104.69633      -135.552          34.000  
> 2021  2 25  2 52 35.9900000  0 25                     
G31  17363387.655 2  91245217.65921      -375.118          47.000  
G26  17591126.712 4  92441975.88721      2035.502          46.000  
G32  18697420.522 2  98255606.43621     -2457.317          47.000  
G22  19925838.791 2 104710988.94821      -741.757          41.000  
G29  19788064.209 2 103986977.42121      1089.288          45.000  
G 3  19821601.974 4 104163217.51021       773.950          40.000  
G16  19737406.297 2 103720768.12221      3754.316          41.000  
G25  20059403.630 2 105412877.90121     -3254.975          41.000  
C16  32962804.760 4 171645943.68121       199.695          48.000  
C 6  32873384.208 4 171180312.87121       233.533          46.000  
C 9  32809554.994 2 170847928.67121       593.042          46.000  
C 7  33756255.778 2 175777649.78721       895.858          44.000  
C26  19099799.174 4  99457635.71721      1456.892          47.000  
C21  19908343.758 2 103667934.08121     -1989.449          48.000  
C 3  34671121.240 2 180541593.29521       155.837          43.000  
C10  34989463.329 2 182199285.06021      1171.749          41.000  
C 1  35250967.633 2 183561004.00621       165.561          43.000  
C 2  35110825.894 4 182831247.58422       131.061          38.000  
C 4  36017178.861 2 187550866.31721       173.391          40.000  
C29  22086021.083 2 115007674.65921      2099.010          44.000  
C 5  37138778.832 4 193391333.49222       139.554          36.000  
G 4  21327913.006 4 112078939.55022      3579.946          37.000  
C22  23218710.319 9 120905909.03125     -3310.459          29.000  
C24  23288977.878 9 121271802.62034      2735.039          30.000  
C30  22948578.261 4 119499241.75522      -141.372          34.000  
> 2021  2 25  2 52 36.9900000  0 25                     
G31  17363459.253 1  91245593.64621      -377.936          47.000  
G26  17590740.399 1  92439941.65321      2031.988          47.000  
G32  18697888.467 1  98258064.69921     -2460.618          48.000  
G22  19925980.556 1 104711732.07321      -745.372          41.000  
G29  19787857.162 1 103985888.82021      1086.227          45.000  
G 3  19821456.056 2 104162445.11421       769.934          40.000  
G16  19736692.565 1 103717014.82821      3750.942          42.000  
G25  20060023.357 1 105416133.73521     -3257.889          41.000  
C16  32962766.370 1 171645744.86621       196.692          48.000  
C 6  32873340.094 1 171180080.04421       230.853          46.000  
C 9  32809441.480 1 170847336.51021       590.509          46.000  
C 7  33756084.033 1 175776754.93821       892.848          44.000  
C26  19099520.495 1  99456180.04421      1453.659          47.000  
C21  19908725.761 1 103669924.76521     -1992.947          48.000  
C 3  34671091.680 1 180541438.41721       152.664          43.000  
C10  34989238.727 1 182198114.37821      1168.813          41.000  
C 1  35250935.769 1 183560838.96921       162.930          44.000  
C 2  35110801.533 2 182831117.98321       127.442          37.000  
C 4  36017146.054 1 187550693.31621       170.589          41.000  
C29  22085618.227 1 115005575.91321      2096.431          45.000  
C 5  37138752.639 2 193391195.27921       136.444          36.000  
G 4  21327232.046 2 112075359.77621      3578.023          37.000  
C22  23219341.057 8 120909220.19424     -3313.243          28.000  
C24  23288460.165 8 121269068.50323      2732.078          29.000  
C30  22948600.894 8 119499383.48923      -143.889          28.000  
> 2021  2 25  2 52 37.9900000  0 25                     
G31  17363531.724 1  91245974.26921      -382.378          47.000  
G26  17590354.278 1  92437912.39521      2027.384          47.000  
G32  18698357.477 1  98260528.13221     -2465.086          48.000  
G22  19926123.561 1 104712479.89421      -749.667          41.000  
G29  19787651.127 1 103984805.54721      1081.418          45.000  
G 3  19821310.364 2 104161677.41221       765.921          39.000  
G16  19735979.270 1 103713266.33821      3746.792          42.000  
G25  20060643.869 1 105419394.29221     -3262.828          41.000  
C16  32962728.538 1 171645550.52821       192.816          48.000  
C 6  32873295.648 1 171179851.76321       226.764          46.000  
C 9  32809328.385 1 170846748.63621       586.224          46.000  
C 7  33755913.387 1 175775864.69021       888.695          44.000  
C26  19099240.994 1  99454728.78521      1449.570          47.000  
C21  19909108.706 1 103671920.36321     -1997.401          48.000  
C 3  34671062.869 1 180541288.10121       148.775          43.000  
C10  34989014.928 1 182196948.31121      1164.474          41.000  
C 1  35250904.655 1 183560678.73521       158.486          44.000  
C 2  35110777.557 2 182830992.79321       123.382          37.000  
C 4  36017114.173 1 187550525.14621       166.784          41.000  
C29  22085216.418 1 115003482.30321      2091.803          45.000  
C 5  37138727.145 2 193391061.34121       132.626          36.000  
G 4  21326552.430 2 112071784.11021      3573.702          37.000  
C22  23219942.793 8 120912535.56123     -3317.071          28.000  
C24  23287937.741 4 121266338.78023      2727.996          29.000  
C30  22948605.501 8 119499530.38023      -148.212          27.000  
> 2021  2 25  2 52 38.9900000  0 24                     
G31  17363604.910 1  91246357.91521      -385.005          47.000  
G26  17589968.803 1  92435886.43721      2024.533          47.000  
G32  18698826.975 1  98262994.63121     -2468.022          48.000  
G22  19926266.705 1 104713231.15321      -752.707          41.000  
G29  19787445.634 1 103983725.49421      1078.435          45.000  
G 3  19821163.171 2 104160913.25821       762.296          39.000  
G16  19735266.586 1 103709520.98621      3744.056          42.000  
G25  20061264.661 1 105422657.65721     -3264.762          41.000  
C16  32962691.683 1 171645353.96231       190.277          48.000  
C 6  32873251.464 1 171179626.23221       224.390          46.000  
C 9  32809216.111 1 170846163.54621       583.826          46.000  
C 7  33755743.108 1 175774977.30421       886.068          45.000  
C26  19098963.117 1  99453280.61521      1446.831          47.000  
C21  19909492.366 1 103673919.15131     -2000.295          48.000  
C 3  34671034.425 1 180541140.55021       146.225          44.000  
C10  34988791.618 1 182195785.10321      1162.117          41.000  
C 1  35250874.082 1 183560521.11421       156.426          44.000  
C 2  35110754.261 2 182830870.40021       121.015          37.000  
C 4  36017082.710 1 187550359.57721       164.243          41.000  
C29  22084815.133 1 115001391.57921      2089.229          45.000  
C 5  37138702.121 2 193390930.28821       130.179          36.000  
G 4  21325873.215 2 112068211.35121      3571.527          37.000  
C22  23220541.388 8 120915853.67523     -3319.515          28.000  
C24  23287420.307 8 121263611.96623      2725.944          29.000  
> 2021  2 25  2 52 39.9900000  0 25                     
G31  17363678.410 1  91246744.39621      -387.215          47.000  
G26  17589584.061 1  92433863.50721      2022.112          47.000  
G32  18699297.101 1  98265464.09621     -2470.073          48.000  
G22  19926410.006 1 104713985.37321      -755.238          41.000  
G29  19787240.855 1 103982648.66121      1075.976          45.000  
G 3  19821018.718 2 104160152.19821       759.882          39.000  
G16  19734554.477 1 103705778.39921      3741.985          42.000  
G25  20061886.255 1 105425923.83021     -3266.819          41.000  
C16  32962656.294 1 171645164.97621       188.385          48.000  
C 6  32873209.270 1 171179403.29821       222.333          46.000  
C 9  32809104.045 1 170845580.95721       581.989          46.000  
C 7  33755573.265 1 175774092.49521       884.259          45.000  
C26  19098685.502 1  99451835.11321      1444.728          47.000  
C21  19909876.672 1 103675920.82521     -2002.420          48.000  
C 3  34671006.523 1 180540995.47021       144.382          44.000  
C10  34988568.621 1 182194624.46521      1160.043          41.000  
C 1  35250844.085 1 183560366.07221       154.481          44.000  
C 2  35110731.157 2 182830750.45221       119.463          37.000  
C 4  36017051.596 1 187550196.57521       162.446          41.000  
C29  22084414.546 1 114999303.77521      2087.210          45.000  
C 5  37138677.412 2 193390801.59521       128.296          36.000  
G 4  21325193.878 2 112064641.12821      3569.374          36.000  
C22  23221146.474 8 120919174.26022     -3321.082          29.000  
C24  23286890.815 4 121260887.75923      2723.495          29.000  
C30  22948657.712 8 119499651.52735      -153.531          26.000  
> 2021  2 25  2 52 40.9980000  0 25                     
G31  19762092.107 1 103850492.98621      -390.205          47.000  
G26  19987539.183 1 105035202.94321      2018.609          47.000  
G32  21098106.953 1 110871295.76721     -2473.467          48.000  
G22  22324893.626 1 117318101.98321      -758.638          41.000  
G29  22185376.047 1 116584934.21921      1072.830          45.000  
G 3  22219213.904 1 116762753.63721       756.615          39.000  
G16  22132182.112 1 116305397.95121      3738.801          42.000  
G25  22460847.714 1 118032551.99821     -3269.424          41.000  
C16  35360960.124 1 184133761.88421       185.590          48.000  
C 6  35271506.452 1 183667966.23221       219.580          46.000  
C 9  35207332.194 1 183333784.23321       579.285          46.000  
C 7  36153743.340 1 188261993.63321       881.260          45.000  
C26  21496747.891 1 111939175.70821      1441.724          47.000  
C21  22308601.088 1 116166708.74921     -2005.609          48.000  
C 3  37069318.799 1 193029635.69411       141.661          43.000  
C10  37386685.926 1 194682249.73021      1157.059          41.000  
C 1  37649154.372 1 196048996.28411       152.016          44.000  
C 2  37509048.110 1 195319416.347 1       116.383          37.000  
C 4  38415360.522 1 200038819.331 1       160.193          41.000  
C29  24482353.597 1 127486002.06721      2084.075          45.000  
C 5  39536992.742 2 205879458.779 1       124.843          36.000  
G 4  23722854.738 2 124664432.82221      3566.365          36.000  
